adress,longitude,latitude,living_area,land_area,supplemental_area,patio,balcony,number_of_rooms,build_year,operating cost,sold_price
"Ragvaldsträsk 338, Ragvaldsträsk, Skellefteå",64.61834,20.8385429,66.0,4170.0,None,0,0,3.0,1974,33 863,1 495 000
"Tennringen 50, None, Järfälla",59.4597778,17.80971,103.0,649.0,27.0,0,0,6.0,1958,19 949,5 200 000
"Sömmerskevägen 7, Hallsberg, Hallsbergs",59.055944018123,15.117798286997,105.0,1923.0,False,0,0,4.0,1929,46 215,720 000
"Mattias väg 8, Ivetofta, Bromölla",56.09088,14.4686079,130.0,1176.0,25.0,0,0,4.0,2009,41 802,2 770 000
"Rådmansgatan 7, Norrmalm, Skövde",58.4003372,13.8600206,128.0,1242.0,117.0,0,0,5.0,1950,30 388,3 900 000
"Galvvägen 5, Arbrå, Bollnäs",61.46425350741776,16.378382394745223,101.0,1139.0,81.0,1,0,4.0,1955,31 218,850 000
"Tolångavägen 11, Grimstofta, Sjöbo",55.62921125424986,13.722793846870356,95.0,1105.0,None,0,0,3.0,1909,51 961,2 400 000
"Kollanda 460, Älvängen, Ale",57.923273053189725,12.276468916433998,66.0,13563.0,90.0,0,0,5.0,1893,28 257,3 000 000
"Kärrarpsvägen 18, Kvidinge, Åstorps",56.13674047503281,13.033317035511532,138.0,1180.0,69.0,0,0,4.0,1923,47 232,1 795 000
"Remmarlöv 2401, Remmarlöv, Eslövs",55.839150785074246,13.244310727147894,145.0,1441.0,7.0,1,0,6.0,1900,67 283,1 900 000
"Stenevägen 36, Fylsta, Kumla",59.1243668,15.1267347,144.0,1091.0,55.0,0,0,6.0,1936,42 429,2 795 000
"Gamla Tågarpsvägen 895, Tjutebro, Ekeby, Bjuvs",55.9809532,12.9344378,98.0,1071.0,None,0,0,4.0,1909,30 150,2 250 000
"Rumbagatan 2, Sjöbo, Sjöbo",55.63411,13.72164,155.0,1106.0,None,0,0,7.0,2010,43 501,3 350 000
"Stäkshöjden 37, Stäket, Järfälla",59.47107,17.80953,123.0,None,None,1,0,6.0,2017,29 043,4 600 000
"Fornrörsvägen 12, Odensberg, Falköpings",58.15373,13.4352779,145.0,936.0,None,0,0,7.0,1975,22 395,1 350 000
"Tårpilsvägen 13, Lövstalöt, Uppsala",59.9574471,17.5807533,83.0,765.0,83.0,0,0,3.0,1962,61 967,3 500 000
"Långdammsvägen 2, Marstrandsön, Kungälvs",57.8850975,11.57893,28.0,617.0,None,0,0,None,1953,None,7 125 000
"Solviksvägen 5, Vedevåg, Lindesbergs",59.52717,15.2976141,78.0,1353.0,78.0,0,0,3.0,1959,69 012,1 195 000
"Parkgatan 26B, Centrum, Ånge",62.5277557,15.6601143,143.0,2735.0,66.0,0,0,6.0,1935,44 873,2 100 000
"Stadsfjället 209, None, Uddevalla",58.384613,11.9337091,None,6000.0,None,0,0,None,None,None,2 450 000
"Ekströms väg 13, Vintrie, Malmö",55.55436,12.9651937,107.0,234.0,None,0,0,3.0,1909,46 700,5 200 000
"Krigarevägen 7, Årstad, Falkenbergs",56.9168649152,12.6735333143,97.0,1820.0,100.0,0,0,3.0,1960,27 215,2 000 000
"Skarpängsvägen 23, None, Kungsörs",59.4397904064,15.935998669,86.0,1980.0,6.0,0,0,3.0,1930,27 558,1 250 000
"Åkarvägen 7, Skebokvarn, Flens",59.06056975728101,16.705352280994457,192.0,1803.0,22.0,0,0,6.0,1977,41 154,1 375 000
"Rösvägen 8, Gäddeholm, Västerås",59.54916,16.6719112,165.0,829.0,None,0,0,5.0,2017,61 808,7 700 000
"Hallonvägen 33, Mariefred, Strängnäs",59.26580161808483,17.28240554551086,112.0,2782.0,14.0,1,0,4.0,1967,65 795,3 750 000
"Barnhemsvägen 38, Hässelby Norra Villastad, Stockholms",59.3861103045649,17.8052795744548,120.0,323.0,20.0,0,0,5.0,1974,42 948,4 440 000
"Västra Pilgatan 7, Vellinge, Vellinge",55.47283,13.0370474,83.0,310.0,14.0,0,0,3.0,1992,42 899,3 750 000
"Lännavägen 49, Hörningsnäs, Huddinge",59.230648,17.99937,122.0,1184.0,133.0,0,0,9.0,1951,50 850,7 000 000
"Stockholmsvägen 167, Bålsta - Fånäs, Håbo",59.5536903435,17.5490937485,151.0,1539.0,75.0,0,0,7.0,1977,43 621,5 040 000
"Solbergsvägen 13, Nedre Svenneby, Torsby",60.1223920493,13.0217691815,147.0,894.0,None,1,0,5.0,2022,31 700,2 950 000
"Krassevägen 3, Kungsbacka, Kungsbacka",57.4813148384,12.1005799134,167.0,1320.0,77.0,0,0,7.0,1969,10 899,5 500 000
"Pråmgatan 7C, Älvsborg, Göteborgs",57.6778374,11.8780241,175.0,951.8,66.0,0,0,6.0,1985,66 016,9 800 000
"Norgegatan 3, Tyringe, Hässleholms",56.1646685372,13.5990891868,164.0,920.0,False,1,0,6.0,2006,48 449,2 500 000
"Eriksdalsvägen 15, Olsfors, Bollebygds",57.6908668927,12.6950958782,89.0,958.0,120.0,0,0,5.0,1965,44 180,1 800 000
"Sve-Johans Hålsjö 841, Hudiksvall, Hudiksvalls",61.8358905181,16.7632522877,92.0,5035.0,87.0,0,0,3.0,1890,37 622,1 610 000
"Berneby 8, Resö, Tanums",58.7999440933,11.1733851124,70.0,1070.0,2.0,0,0,4.0,1934,24 996,3 250 000
"Ståhls väg 10, Ytterharnäs, Gävle",60.6518628369,17.359570108,138.0,1110.0,24.0,0,0,5.0,1909,37 014,2 700 000
"Skorstensvägen 182, Lindsdal, Kalmar",56.7317735189,16.3018635346,155.0,612.0,False,0,0,6.0,1975,39 102,2 590 000
"Irsta kyrkby 7, Irsta, Västerås",59.59839,16.7031326,754.0,9513.0,170.0,0,0,8.0,2001,127 971,14 000 000
"Nyhemsvägen 27, Bräkne-hoby, Ronneby",56.2353656325,15.1140811282,90.0,1469.0,90.0,0,0,3.0,1964,27 270,800 000
"Solhagavägen 109, Spånga - Nälsta, Stockholms",59.3714702998,17.8877961318,117.0,196.0,False,1,1,5.0,1969,38 400,4 275 000
"Kungsbrovägen 30B, Ljungsbro, Linköpings",58.503537623770086,15.515889791939088,158.0,1251.0,110.0,1,1,6.0,1939,36 377,2 550 000
"Bärstavägen 42, Lövnäs, Hammarö",59.33543953779348,13.5384894668609,135.0,2109.0,44.0,0,0,5.0,1930,None,4 000 000
"Kungsbäcksvägen 17, Villastaden, Gävle",60.67174119713001,17.130326044392053,256.0,1248.0,216.0,1,1,8.0,1916,69 500,11 700 000
"Torphagsvägen 38, Bankeryd, Jönköpings",57.84125550468982,14.13586069435081,165.0,591.0,7.0,0,0,6.0,2018,30 112,5 300 000
"Flisvägen 3, Born, Orsa",61.13512676236521,14.6375650775465,160.0,1603.0,80.0,0,0,6.0,1948,17 350,1 250 000
"Åströms väg 20, Hosjö, Falu",60.5920306255,15.7443707635,160.0,1262.0,False,0,0,5.0,1929,69 918,2 800 000
"Kimmersbo Söderväg 4, Lindome, Mölndals",57.55896877877849,12.005551332764252,143.0,1655.0,58.0,1,1,7.0,1975,23 822,5 800 000
"Gulli Petrinis väg 9, Växjö, Växjö",56.835845694392795,14.805113647116475,190.0,989.0,None,1,0,6.0,2016,43 472,5 000 000
"Rösgatan 25, Centralt, Åmåls",59.05594520248117,12.695842658230427,127.0,773.0,56.0,1,0,6.0,1922,29 432,1 200 000
"Vetevägen 96, Hovsta, Örebro",59.34169059528256,15.234752658781755,125.0,302.0,None,1,0,5.0,1979,50 650,2 895 000
"Buskbovägen 25, Danholn, Falu",60.62229843214154,15.80408350629042,124.0,900.0,None,1,0,5.0,1991,48 920,2 925 000
"Margretedalsvägen 8, None, Härryda",57.69036620000001,12.2741791,60.0,1057.0,20.0,0,0,3.0,1955,5 600,1 900 000
"Fjärdingsmannavägen 14, Vingåker, Vingåkers",59.05973822415137,15.87152745648214,120.0,1134.0,55.0,1,1,4.0,1950,30 834,825 000
"Possebergsvägen 12, Posseberg, Kristinehamns",59.23875926123636,14.081548951014597,80.0,2560.0,None,0,0,6.0,1942,24 163,4 000 000
"Ängserydsgatan 36, Mossen, Motala",58.53530035385623,15.02023546609308,126.0,911.0,102.0,1,1,4.0,1947,46 238,2 450 000
"Morrarö 8, Strängnäs, Strängnäs",59.43934635963224,17.047135787699776,136.0,2072.0,None,1,0,5.0,1979,42 349,1 800 000
"Videvägen 18, Ersholen, Gagnefs",60.492328494086024,14.957478912800843,150.0,2776.0,15.0,0,0,6.0,1922,25 635,1 995 000
"Riddarbacken 3, Kävlinge, Kävlinge",55.79593,13.090332,121.0,806.0,None,0,0,5.0,1997,45 164,4 200 000
"Trallbanevägen 20, Landvetter, Härryda",57.69747,12.2015295,124.0,382.0,8.0,0,0,5.0,2004,34 205,6 300 000
"Estlandsgatan 128, Enskedefältet - Enskede, Stockholms",59.285056827444194,18.0637731944772,88.0,443.0,56.0,0,0,4.0,1931,42 000,6 000 000
"Adler Salvius väg 109, Tullinge, Botkyrka",59.21602259261904,17.891617991325443,117.0,628.0,47.0,1,0,5.0,1977,50 500,4 200 000
"Källström 29, Knivsta, Knivsta",59.72259,17.96368,187.0,21444.0,98.0,0,0,6.0,None,61 260,7 200 000
"Lidgatan 11, Mösseberg, Falköpings",58.1804785824137,13.5463751651195,116.0,587.0,18.0,0,0,5.0,1909,34 775,2 575 000
"Andgränd 16, Svaneholm, Borås",57.604382139472,12.792331837963,147.0,1151.0,None,0,0,5.0,1980,47 180,720 000
"Nygatan 18, Vinslöv, Hässleholms",56.09802,13.914834,94.0,1383.0,81.0,0,0,4.0,1930,46 197,1 750 000
"Vårflodsgatan 15, Centrala Hisingen - Kyrkbyn, Göteborgs",57.709362,11.9031315,114.0,650.0,66.0,0,0,6.0,1928,31 371,5 730 000
"Kullaviksvägen 10, Kullavik, Kungsbacka",57.5476456,11.9621048,119.0,1376.0,174.0,0,0,7.0,1880,47 766,8 000 000
"Öjersjövägen 8C, Öjersjö, Partille",57.7056122,12.147542,164.0,851.0,28.0,0,0,8.0,1990,34 740,6 700 000
"Tullebo ekväg 5, Bollebygd, Bollebygds",57.7108470524502,12.4845912540622,105.0,2315.0,60.0,0,0,5.0,1924,49 201,3 360 000
"Färjevägen 11, None, Ånge",62.5162926,15.66351,138.0,1382.0,82.0,0,0,6.0,1951,47 268,1 850 000
"Furulundsgatan 24, None, Gotlands",57.6225166,18.30281,136.0,1042.0,86.0,0,0,6.0,1945,46 458,3 925 000
"Oxdrivarvägen 8, Tvärskog, Kalmar",56.6250343,16.0365753,143.0,845.0,None,0,0,4.0,2022,35 500,2 590 000
"Egernahults stugområde 20, None, Laholms",56.6000023,13.3616285,50.0,1603.0,18.0,0,0,3.0,1976,17 464,750 000
"Nytorpsvägen 5, Älvängen, Ale",57.9544404069,12.1266513309,110.0,1481.0,65.0,0,0,8.0,1948,45 763,4 450 000
"Bräknevägen 55A, Bräkne-hoby, Ronneby",56.2351663499,15.1158263229,100.0,1002.0,95.0,0,0,5.0,1968,35 736,900 000
"Ljungstigen 7, None, Tingsryds",56.5266075,14.990612,145.0,1120.0,None,0,0,4.0,1986,36 058,2 000 000
"Svenningstorp 1, Töreboda Landsbygd, Töreboda",58.7422353004,14.1229364988,71.0,1591.0,69.0,0,0,3.0,1950,45 800,500 000
"Bergsåsarna 4, None, Forshaga",59.5842910978,13.5412921106,84.0,30480.0,False,0,0,3.0,1938,7 954,1 400 000
"Toretorpsvägen 1, Gästrike Hammarby, Sandvikens",60.5425283238,16.5608910479,145.0,9350.0,28.0,0,0,5.0,1918,49 850,2 995 000
"Stenåldersvägen 3, Odensala, Östersunds",63.1512340897,14.6865640056,132.0,660.0,76.0,1,1,7.0,1970,38 139,4 375 000
"Sveagatan 8, Skutskär, Älvkarleby",60.621962254,17.4130891963,121.0,1146.0,33.0,1,0,4.0,2007,52 620,2 260 000
"Vaseliden 37, Landvetter, Härryda",57.7037609035,12.2133649378,176.0,1959.0,60.0,0,0,7.0,1936,50 032,6 500 000
"Solviksvägen 6, Solvik, Arvika",59.6491932305,12.6314089659,80.0,1628.0,55.0,1,0,4.0,None,35 011,1 500 000
"Stora Strömsborg - Vällebergsvägen 7, Ljungskile, Uddevalla",58.2226817404,11.9198409085,None,480.0,None,0,0,None,1929,None,4 000 000
"Stenvägen 19, None, Smedjebackens",60.1510353,15.4096136,136.0,674.0,50.0,0,0,6.0,1973,52 007,1 300 000
"Bygattu 66, Sifferbo, Gagnefs",60.5643173124,15.2156699009,73.0,2876.0,70.0,1,0,3.0,1961,36 299,1 250 000
"Vidhemsgatan 25, Vedum med omnejd, Vara",58.1683247753,12.990602744,123.0,1089.0,81.0,0,0,5.0,1948,41 087,1 925 000
"Boda Annelund 1, Boda, Eda",59.7230632597,12.1878087257,61.0,3070.0,40.0,0,0,4.0,1939,33 460,650 000
"Bondemölla 4746, None, Hörby",55.91203712969251,13.607875240497266,129.0,1932.0,None,0,0,5.0,2019,24 194,3 815 000
"Pelle Kroks väg 8, Halmstad, Halmstads",56.65723379216556,12.794664362805912,108.0,807.0,90.0,1,0,4.0,1964,9 195,4 350 000
"Vintervägen 26, Kallkälldalen, Hagfors",60.0459713892,13.6924378938,83.0,1138.0,83.0,1,0,3.0,1968,37 922,850 000
"Munka Tågarps Gård, Ystad, Tomelilla",55.490814359210155,13.981514653977628,400.0,143700.0,200.0,0,0,11.0,1800,None,30 000 000
"Storängsvägen 20, Björbo, Gagnefs",60.45608012435816,14.712814764100646,125.0,1530.0,58.0,1,0,4.0,1949,28 441,1 050 000
"Lindvägen 3, None, Hammarö",59.3444992796,13.4591648711,91.0,1123.0,67.0,0,0,4.0,1940,None,2 650 000
"Kokstensvägen 109, Gävle, Gävle",60.66130244583704,17.206149226871783,120.0,130.0,16.0,0,0,None,1980,58 683,2 350 000
"Gläntans Bigårdar, Västerlyckevägen 30, None, Kristianstads",56.05921975585794,13.988603028818702,None,1663.0,None,0,0,None,None,None,1 700 000
"Lillåvägen 7, Kåge, Skellefteå",64.84138397107122,20.9827137051754,144.0,1070.0,47.0,1,1,6.0,1972,38 803,2 700 000
"Glarhallavägen 5A, Arild, Höganäs",56.2714897873784,12.57676599360097,134.0,538.0,None,0,0,None,1988,None,4 425 000
"Älgsjön 26, Älgsjön, Smedjebackens",60.0570948469,15.6998995135,68.0,2489.0,4.0,0,0,3.0,1983,21 342,1 600 000
"Ringvägen 13B, Laggarhult, Katrineholms",58.98897789954308,16.239491465785708,98.0,398.0,45.0,0,0,5.0,1972,56 578,2 500 000
"Bratteröd 342, None, Uddevalla",58.3193675678,11.9510864834,None,1381.0,None,0,0,None,None,None,3 900 000
"Lerdalavägen 5, Dälderna, Skövde",58.41121026544168,13.83181979542142,260.0,1065.0,10.0,0,0,7.0,1993,44 632,5 600 000
"Lenhovda-Nöbbele Lundabo, Lenhovda, Uppvidinge",56.996245675276825,15.272817052403159,190.0,3144.0,93.0,0,0,8.0,1939,None,1 125 000
"Ärnevi 91, Gunsta, Uppsala",59.851980214980124,17.824992165157138,116.0,1280.0,70.0,1,0,5.0,1937,31 808,3 510 000
"Tallstigen 14, Moholm, Töreboda",58.60738369502606,14.031273599210893,109.0,1258.0,106.0,0,0,6.0,1969,40 318,850 000
"Edanövägen 3, Öbolandet, Trosa",58.88576773967809,17.559791713111142,39.0,2492.0,None,0,0,3.0,1964,16 679,2 900 000
"Bangårdsgatan 5, Visby, Gotlands",57.63181532853473,18.292517769389235,213.0,805.0,87.0,1,1,6.0,1904,16 242,10 500 000
"Hemvägen 6, Odensala, Östersunds",63.15857987822352,14.685577548778486,108.0,996.0,129.0,0,0,6.0,1981,53 600,3 300 000
"Gröntuv 164, Gröntuv, Gagnefs",60.589898387034026,15.095845874258552,110.0,2189.0,102.0,0,0,5.0,1988,39 257,2 510 000
"Verktygsgatan 81, Malung, Malung-Sälens",60.687124816,13.7234192291,120.0,1039.0,100.0,0,0,4.0,1959,52 008,1 100 000
"Bågspännarvägen 32, Seestaden, Sandvikens",60.60790115224077,16.755805333159536,153.0,905.0,60.0,0,0,7.0,None,None,1 550 000
"Mörtvägen 14, Bålsta Hagviken, Håbo",59.5365524,17.4989071,104.0,283.0,10.0,0,0,4.0,1983,23 069,3 500 000
"Näs Eningen 3, Seglora, Borås",57.6782048817325,12.7473490180046,44.0,2855.0,7.0,0,0,2.0,1953,9 990,1 130 000
"Bodarnevägen 22, None, Hudiksvalls",61.65025045379592,17.105241313741107,107.0,1161.0,83.0,0,0,5.0,1962,26 900,1 500 000
"Murmästaregatan 6, Utby, Göteborgs",57.7412224,12.0726376,82.0,452.3,55.0,0,0,4.0,1949,None,5 100 000
"Centrumvägen 13, Åsarp, Falköpings",58.0246401726181,13.5607696365947,148.0,867.0,None,0,0,7.0,1934,43 976,1 000 000
"Stamnared 212, Stamnared, Varbergs",57.2101,12.3968048,60.0,1309.0,33.0,0,0,5.0,1910,25 065,800 000
"Kryssvägen 1, Norra Kopparmora, Värmdö",59.3395042,18.577776,102.0,1994.0,35.0,0,0,4.0,1965,46 366,5 000 000
"Annetorpsvägen 76, Elinegård, Malmö",55.569603,12.9488878,165.0,190.0,None,0,0,8.0,2022,26 000,6 950 000
"Sönnervång 1311, Södra Sandby, Lunds",55.70315,13.3448076,89.0,530.0,24.0,0,0,5.0,1920,32 809,3 200 000
"Karlskronavägen 43, Vassmolösa, Kalmar",56.5972328,16.16443,110.0,1115.0,110.0,0,0,6.0,1947,37 500,2 060 000
"Barkåkravägen 51, Barkåkra, Ängelholms",56.28326,12.8421688,242.0,1500.0,154.0,0,0,7.0,1942,67 736,4 000 000
"Aprilvägen 12, None, Järfälla",59.4248324963224,17.8137026291021,124.0,718.0,91.0,0,0,6.0,1968,48 592,6 550 000
"Sävgatan 8, Färjestaden, Mörbylånga",56.66329,16.4861221,93.0,955.0,7.0,0,0,3.0,2008,35 500,3 175 000
"Järnåldersvägen 6, Kristianstad - Vä, Kristianstads",56.0054321,14.089735,123.0,904.0,28.0,0,0,5.0,1970,36 083,3 000 000
"Solvägen 6, Matfors, Sundsvalls",62.3454,17.04708,72.0,1335.0,72.0,0,0,3.0,1957,34 729,1 525 000
"Södra Kungsvägen 43, None, Tidaholms",58.1727719754643,13.961559199164993,106.0,1226.0,6.0,1,0,4.0,1968,37 000,1 250 000
"Ryttmästarvägen 105, Nälsta, Stockholms",59.3753548,17.86823,158.0,604.0,77.0,0,0,7.0,1972,35 948,7 700 000
"Krusenberg 78, Knivsta, Knivsta",59.7438431,17.65979,50.0,3211.0,None,0,0,None,None,None,3 300 000
"Gjuterivägen 40, Strandskogen, Mörbylånga",56.6921539,16.5155773,155.0,7837.0,None,0,0,7.0,1980,38 850,4 000 000
"Södra Möinge 7150, Billeberga, Svalövs",55.8682632,12.98888,200.0,6400.0,20.0,0,0,6.0,1912,63 890,3 200 000
"Regnbågsvägen 6, None, Älmhults",56.66428,14.26281,120.0,1219.0,65.0,0,0,4.0,1957,31 500,950 000
"Skogslyckevägen 54, Skogslyckan, Växjö",56.89971,14.8142786,95.0,721.0,53.0,0,0,5.0,1966,36 700,2 700 000
"Förrådsgatan 6, None, Filipstads",59.69621591384565,14.164891160588967,None,1401.0,None,0,0,None,1964,18 900,1 075 000
"Barnhemsgatan 4, Söder/Vallbacken, Gävle",60.6650238,17.1390686,185.0,783.0,95.0,0,0,6.0,1943,66 280,4 900 000
"Seglaregatan 7, Skillinge, Simrishamns",55.47109,14.278368,116.0,703.0,72.0,0,0,5.0,1981,40 181,2 650 000
"Knivetorpsvägen 3, Lexby, Partille",57.7425461,12.1073217,211.0,1284.0,27.0,0,0,8.0,1901,59 852,6 250 000
"Långdansen 10, Toltorp, Mölndals",57.6684875,11.9821672,122.0,294.0,None,0,0,None,1962,35 944,5 970 000
"Mistelgatan 14, Bårslöv, Helsingborgs",56.0071,12.8001146,206.0,543.0,10.0,0,0,8.0,1977,32 050,3 500 000
"Fibervägen 5, Läckeby, Kalmar",56.782608,16.290123,175.0,1005.0,None,0,0,6.0,2021,36 700,4 295 000
"Galtövägen 17, Hov, Växjö",56.8960457,14.80703,114.0,348.0,None,0,0,5.0,2001,46 554,3 600 000
"Lilleby skolväg 2, Torslanda - Lilleby, Göteborgs",57.73859,11.7964325,195.0,911.1,None,0,0,6.0,2011,45 723,8 470 000
"Hasselvägen 14, Lyckeby, Karlskrona",56.1945799337,15.6672682767,116.0,1007.0,116.0,1,0,6.0,1966,62 080,2 275 000
"Första Västralundsgatan 9, Västralund, Västerviks",57.7579699012,16.6180497578,113.0,677.0,50.0,1,1,5.0,1924,39 714,2 275 000
"Torstuna 19, Torstuna, Enköpings",59.7809512839,17.0845516646,70.0,2300.0,False,1,0,3.0,1939,8 576,1 710 000
"Hagafors Granbacken 1, Hok, Vaggeryds",57.471136239,14.3518132734,74.0,3050.0,35.0,0,0,3.0,1934,57 200,1 200 000
"Vitsordsvägen 3, Furulund, Partille",57.733963,12.1319561,146.0,534.5,26.0,0,0,6.0,1987,44 387,6 400 000
"Vasavägen 11, Lindholmen, Vallentuna",59.5850641252,18.1109482444,181.0,1051.0,58.0,1,1,9.0,1982,54 400,5 500 000
"Gläntan 3, Långshyttan, Hedemora",60.4475259259,16.0224548071,106.0,931.0,False,0,0,4.0,1975,43 802,900 000
"Bärby korsväg 20, Säve, Göteborgs",57.7982005476,11.9202416576,85.0,1349.0,14.0,0,0,3.0,1913,47 600,3 240 000
"Fruktgången 14, Krikonbacken, Nyköpings",58.7755,16.977135,99.0,395.0,False,1,0,5.0,1974,38 500,2 300 000
"Källhagsvägen 4, None, Hedemora",60.29997,15.8323393,96.0,1591.0,70.0,0,0,None,1934,None,1 450 000
"Ölandsgatan 1, Karlshagen, Degerfors",59.2501646892,14.4341469882,103.0,764.0,103.0,1,0,4.0,1968,35 978,655 000
"Sparregatan 29, Ängö, Kalmar",56.6719475,16.3712845,102.0,726.0,56.0,0,0,5.0,1954,28 400,4 400 000
"Nygårdsvägen 4, Götene Tätort, Götene",58.5244597597,13.4610336079,50.0,1190.0,41.0,0,0,2.0,1943,32 599,500 000
"Esbiörn Schillersgatan 12, Hulelyckan, Mölndals",57.6516762,12.0304527,162.0,895.0,None,0,0,5.0,1900,44 632,4 340 000
"Tallvägen 9, Burhagen, Säters",60.35437,15.7276859,129.0,963.0,None,0,0,6.0,1975,None,1 900 000
"Smedjegårdsängen 1, Torslanda - Björlanda, Göteborgs",57.7586555,11.8621521,92.0,3196.0,116.0,0,0,4.0,1959,41 730,4 050 000
"Sandtorpsvägen 9, Järna, Södertälje",59.0914536,17.5697441,154.0,1107.0,88.0,0,0,5.0,1947,34 200,5 200 000
"Krokslycke 260, Spekeröd, Stenungsunds",58.0106862323,11.8634155208,65.0,1011.0,False,1,0,3.0,1973,28 457,3 000 000
"Mjövikstrandsvägen 9, Nättraby, Karlskrona",56.1833845142,15.5289305323,150.0,1430.0,30.0,1,0,6.0,2018,29 995,5 200 000
"Furuvägen 10, None, Norrköpings",58.6578112341,16.1564754814,100.0,1090.0,58.0,0,0,4.0,1947,32 856,2 875 000
"Färnebo Hedbo 212, Västerfärnebo, Sala",59.9643536342,16.3603460038,47.0,1940.0,False,0,0,2.0,1940,12 956,870 000
"Balders gata 11, Centralt, Hörby",55.8599056293,13.6521486646,169.0,911.0,False,0,0,6.0,1978,27 428,2 005 000
"Hyssna Söderbacka Sjöglimten, None, Marks",57.5338566688,12.5638678311,181.0,1513.0,None,0,0,7.0,None,None,3 585 000
"Kvarngatan 16, Glimåkra, Östra Göinge",56.3077621,14.1464338,85.0,1340.0,88.0,0,0,5.0,1934,55 542,450 000
"De la Gardievägen 48, Lidköping, Lidköpings",58.505759716943345,13.140212873461254,77.0,598.0,50.0,0,0,6.0,1936,32 341,2 300 000
"Västra Säbygatan 14, None, Kungsörs",59.4222529455,16.1443571143,111.0,1730.0,47.0,0,0,3.0,1948,35 807,1 800 000
"Författarvägen 2, Boken, Nybro",56.74899413295201,15.93371956866401,170.0,8251.0,40.0,0,0,5.0,1920,45 620,2 225 000
"Vinkelgatan 7, Centrum, Pajala",67.22317089321827,23.33851195454296,80.0,1110.0,30.0,0,0,4.0,1961,38 173,330 000
"Fortvägen 5, Gribbylund, Täby",59.463856541977506,18.083620493937314,170.0,809.0,37.0,1,1,6.0,1995,29 859,9 900 000
"Nämndemansvägen 13, Samuelsdal, Falu",60.58821958273475,15.623315226669103,114.0,1140.0,81.0,0,0,4.0,1964,36 330,3 100 000
"Thulegatan 18, Flen, Flens",59.060392488129274,16.58319257301906,248.0,1256.0,None,0,0,8.0,1904,58 400,2 650 000
"Herrgårdsvägen 4, Karlskrona, Karlskrona",56.18052084086584,15.617723348568525,165.0,810.0,42.0,0,0,7.0,1922,44 615,4 650 000
"Ringvägen 34, Saltsjöbaden - Rösunda, Nacka",59.2831985418744,18.303318796858054,209.0,2945.0,23.0,1,1,7.0,1890,69 041,17 000 000
"Lasarettsgatan 31, Lasarettsområdet, Motala",58.5435923611,15.0312860976,96.0,794.0,52.0,0,0,4.0,1934,34 600,1 800 000
"Medborgarvägen 14, Tillberga, Västerås",59.68357315332728,16.61912471286189,94.0,742.0,94.0,1,0,6.0,1964,54 750,1 950 000
"Sursta 26, Vallentuna, Vallentuna",59.543036967911235,18.023048377651627,95.0,2400.0,None,1,0,4.0,1967,None,4 600 000
"Råhagen 114, Hallekullen, Stenungsunds",58.02676705214903,11.935775933311742,140.0,1943.0,83.0,0,0,7.0,1969,45 875,2 600 000
"Skogsvägen 20, Risögrund, Kalix",65.8126975284,23.2434547366,104.0,1065.0,75.0,1,0,5.0,1977,25 601,330 000
"Allhelgonavägen 27, Centralt Öster, Nyköpings",58.75096644699455,17.021531913300212,219.0,1249.0,117.0,0,0,8.0,1914,54 926,8 000 000
"Örjavägen 11, Strövelstorp, Ängelholms",56.16076,12.837412,178.0,862.0,112.0,0,0,6.0,1970,45 565,3 700 000
"Fötene Samuelsgården 1, Vårgårda, Vårgårda",58.08668206944541,12.821639823612978,125.0,4182.0,None,0,0,6.0,1909,None,510 000
"Bunkeflovägen 28, Bunkeflostrand, Malmö",55.55932411072929,12.928544132409339,158.0,392.0,None,0,0,6.0,2008,48 200,6 800 000
"Alkvettervägen 6, Karlskoga, Storfors",59.43820092665967,14.393074342258382,117.0,1131.0,None,0,0,4.0,1975,45 751,875 000
"Hansesgatan 8, Forssa, Borlänge",60.495831357912955,15.427666799940384,114.0,592.0,None,1,1,4.0,1991,42 431,2 450 000
"Skepparvägen 13, Ransta, Sala",59.809952463174646,16.636642001664914,140.0,891.0,51.0,1,0,6.0,1930,33 954,2 350 000
"Växbo 2802, None, Bollnäs",61.401206414,16.5109429519,116.0,25440.0,52.0,0,0,4.0,1909,28 335,1 700 000
"Tempusvägen 3, Ensta, Täby",59.45181,18.066061,169.0,867.0,148.0,0,0,8.0,1968,50 500,8 910 000
"Lillstugevägen 15, None, Örebro",59.2489128,15.279192,135.0,1334.0,None,0,0,4.0,1954,43 400,3 700 000
"Svarvarevägen 9, Centralt, Nykvarns",59.177803,17.4197865,167.0,1050.0,55.0,0,0,9.0,1978,35 100,4 400 000
"Dagsås 7, Dagsås, Varbergs",57.0627251,12.4881124,94.0,4395.0,6.0,0,0,4.0,None,44 659,2 325 000
"Skogvaktarvägen 4, Götaslätten, Lilla Edets",58.1244278,12.1397467,121.0,928.0,None,0,0,5.0,1981,46 051,2 000 000
"Soldatvägen 27, None, Skellefteå",64.69154,21.2205257,139.0,610.0,26.0,0,0,6.0,1973,38 944,2 000 000
"Örtugsvägen 19, Kungsängen, Upplands-Bro",59.4841423,17.74344,116.0,658.0,4.0,0,0,4.0,1982,22 000,4 400 000
"Enebygatan 25, Kisa, Kinda",57.98753,15.6443748,76.0,1136.0,31.0,0,0,4.0,1880,29 616,1 250 000
"Fäladsgatan 6, Örkelljunga, Örkelljunga",56.2771645,13.27515,96.0,867.0,None,0,0,4.0,1976,34 364,1 200 000
"Högmarksvägen 8, None, Ronneby",56.1945076,15.26809,136.0,1609.0,76.0,0,0,5.0,1944,28 789,2 750 000
"Harmonivägen 22, Läckeby, Kalmar",56.78574,16.3032112,103.0,1507.0,35.0,0,0,3.0,1970,50 549,1 900 000
"Landsvägen 2423, Anderslöv, Trelleborgs",55.43724824329227,13.356481713932718,115.0,1211.0,69.0,0,0,5.0,1959,41 700,2 100 000
"Tunatorp Nabbudden 8, Tunatorp, Växjö",56.9580536,14.7165489,80.0,1124.0,None,0,0,3.0,1936,21 484,3 500 000
"Västra Bodarnevägen 69, Västra Bodarna, Alingsås",57.8818741,12.4638863,127.0,2650.0,None,0,0,4.0,1932,23 075,5 000 000
"Prebendevägen 15, Norr, Växjö",56.88752,14.824748,173.0,836.0,None,0,0,8.0,1971,77 132,3 500 000
"Svenstorpsvägen 282, Svenstorp, Ystads",55.4801521,13.94702,185.0,4142.0,None,0,0,7.0,1930,33 069,1 725 000
"Vikaliden 521, Hällingsjö, Härryda",57.6240258523193,12.3855615124735,134.0,1834.0,4.0,0,0,4.0,1967,35 391,3 250 000
"Tallvägen 5, Hälletorp, Härnösands",62.6327826255013,17.911133360285,95.0,988.0,46.0,0,0,4.0,1936,40 733,805 000
"Vindön 260, Orust, Orust",58.2978134,11.6958132,149.0,1084.0,108.0,0,0,None,1977,42 550,3 450 000
"Norra Parkgången 8, Skanör, Vellinge",55.414463,12.8491192,230.0,960.0,None,0,0,7.0,1986,72 602,11 300 000
"Parkgatan 10, Valla, Linköpings",58.4086876,15.5997171,330.0,882.0,None,0,0,None,1934,None,6 500 000
"Tallåsavägen 1, Kristineberg, Oskarshamns",57.2492406417907,16.4578057800303,117.0,925.0,143.0,1,0,7.0,1977,24 807,2 100 000
"Höjavägen 28, Villan, Ängelholms",56.2370567,12.8667927,155.0,1012.0,70.0,0,0,5.0,1956,66 999,5 125 000
"Georgsgatan 6B, Centrala Halmstad - Väster, Halmstads",56.6741028,12.8410711,140.0,199.0,70.0,0,0,5.0,1978,35 182,3 000 000
"Såningsvägen 34, Södra Sunderbyn, Luleå",65.6633453,21.9412727,160.0,1093.0,None,0,0,6.0,2009,35 015,4 000 000
"Hällskärsvägen 2, Norrsundet, Gävle",60.9194739114,17.1110226465,110.0,1975.0,41.0,0,0,3.0,1937,29 688,400 000
"Ekastorp Mossavägen 17, Södra Rörum, Hörby",55.933429223,13.7079190036,86.0,1780.0,False,1,0,3.0,1974,35 258,1 150 000
"Gamla Kungsvägen 75, Billingssluttningen, Skövde",58.39183,13.8284731,134.0,836.0,93.0,0,0,5.0,1984,52 406,3 700 000
"Sofiedalsvägen 9, Valbo, Gävle",60.6389975349,17.0015017493,117.0,864.0,120.0,0,0,5.0,1963,13 713,2 100 000
"Vallbohagavägen 1, Spexhult, Nässjö",57.6299184625,14.6821946751,60.0,1174.0,False,0,0,3.0,1916,23 619,1 695 000
"Lerbäcksvägen 17, Åsbro, Askersunds",58.949028,15.0443935,106.0,1325.0,8.0,0,0,4.0,1939,58 182,900 000
"Storegårdsvägen 12, Karl Gustav, Varbergs",57.2578018715,12.5525695828,74.0,560.0,20.0,1,0,3.0,1968,12 000,700 000
"Hällan 42, Jättendal, Nordanstigs",61.9688207719,17.3014354317,172.0,2844.0,False,1,0,5.0,1998,41 700,2 350 000
"Kvartärvägen 1, Hökåsen, Västerås",59.6695304144,16.5850163117,113.0,964.0,174.0,0,0,6.0,1974,54 500,4 200 000
"Tjugesta 203, Tjugesta, Örebro",59.3514442,15.390461,121.0,1465.0,38.0,0,0,4.0,2008,40 526,2 900 000
"Solhemsvägen 10, Kolberga, Oskarshamns",57.2740479,16.4721127,122.0,764.0,101.0,0,0,5.0,1969,56 509,3 900 000
"Mellomgårdsgatan 88, Hulta, Borås",57.7171309286,12.9840801918,150.0,636.0,150.0,0,0,None,1963,41 437,3 200 000
"Trädgårdsvägen 5, None, Nordmalings",63.54186,19.4351139,140.0,890.0,None,0,0,5.0,1929,33 475,550 000
"Kvarnegårdsgatan 26, Gamla Staden, Lidköpings",58.495453,13.1606655,100.0,708.0,61.0,1,0,4.0,1957,43 747,3 325 000
"Lundevägen 82, None, Timrå",62.5250626,17.3477268,110.0,1475.0,None,0,0,4.0,None,41 478,1 650 000
"Kopparnäsvägen 50, Kopparnäs, Piteå",65.4044365017,21.4784972567,130.0,1308.0,38.0,0,0,7.0,1966,43 380,895 000
"Charlottenbergsgatan 2, Råtorp, Karlstads",59.4051470016,13.4843842294,65.0,1441.0,65.0,1,0,2.0,1939,32 436,2 650 000
"Gällstads Backen 101, Gällstad, Ulricehamns",57.6511397167,13.4659818056,140.0,2310.0,90.0,1,0,5.0,1909,53 085,1 900 000
"Rosforsvägen 302, Sjulsmark, Piteå",65.54247183813175,21.493300882671093,90.0,1990.0,65.0,0,0,4.0,1954,26 078,1 000 000
"Skatvägen 3, Bunkeflostrand, Malmö",55.5522979614145,12.909310814770421,133.0,320.0,24.0,0,0,5.0,1968,41 000,5 000 000
"Vråkvägen 24, Mosstorp, Lidingö",59.356479697547144,18.14776649311,68.0,1141.0,60.0,0,0,4.0,1947,44 800,8 570 000
"Dalvägen 88, Ella Park, Täby",59.4551414958,18.0461132993,148.0,922.0,33.0,0,0,4.0,1973,53 577,7 000 000
"Alby 128, Alby / Öland, Mörbylånga",56.4822354608,16.574430168,174.0,1592.0,119.0,1,0,7.0,None,35 228,2 800 000
"Ankarvägen 14, Ornäs, Borlänge",60.50484315402428,15.532996860421218,103.0,1090.0,97.0,0,0,6.0,1974,39 553,3 495 000
"Sannum Södergård 490 - Del av Sannum 1:4, Nol, Ale",57.91306328788487,12.14447556664972,70.0,None,None,0,0,3.0,1880,25 500,2 500 000
"Strandvägen 113B, Tyresö Strand, Tyresö",59.25412799536795,18.272533136670518,160.0,1416.0,30.0,0,0,8.0,2010,47 147,11 500 000
"Markussons plats 10, Vallda, Kungsbacka",57.4832479648596,11.97726642853648,125.0,578.0,4.0,1,0,5.0,1968,43 349,3 600 000
"Menlösa 10, Menlösa, Laholms",56.4230977403731,13.068918731875769,100.0,4000.0,65.0,1,0,4.0,1936 - 1937,31 000,2 475 000
"Abborrevägen 8, Boxholm, Timmerö, Boxholms",58.18137372137489,15.063409257821055,129.0,878.0,None,0,0,4.0,2021,36 000,2 995 000
"Västerhejde Beckatorpsvägen 11, Västerhejde, Gotlands",57.589461331404316,18.244359757470086,122.0,1506.0,None,0,0,5.0,1988,35 194,3 950 000
"Gärdhem Furutorp, Trollhättan, Trollhättans",58.2583837,12.3543347,143.0,5751.0,69.0,1,1,6.0,1958,45 872,3 950 000
"Ohtanajärvi 158, Ohtanajärvi, Pajala",66.91006947663695,23.14385613334682,83.0,1698.0,64.0,0,0,4.0,1951,32 092,295 000
"Långå Sandbacken 353, Hede, Härjedalens",62.4520248367,13.2371795433,96.0,1530.0,96.0,0,0,3.0,1957,43 675,850 000
"Svengrensgatan 22, Övre Nyfors, Eskilstuna",59.36423508736581,16.504733218958915,173.0,660.0,138.0,0,0,6.0,1932,68 491,3 075 000
"Ljungvägen 42, Örta, Sandvikens",60.601338923084896,16.75847724517366,70.0,772.0,70.0,1,0,3.0,1950,None,1 700 000
"Ålvägen 33, Hammar, Hammarö",59.327270973,13.5127824879,147.0,454.0,None,0,0,6.0,1977,None,3 400 000
"Östra Propellergatan 7, Edvinshem, Ystads",55.4281158,13.7949362,125.0,963.0,150.0,0,0,4.0,1972,37 326,3 150 000
"Kaprifolvägen 2, Viken, Höganäs",56.1591263,12.5771532,142.0,829.0,None,0,0,6.0,1973,27 291,3 550 000
"Ladugatan 14, Centrala Vellinge, Vellinge",55.46495,13.02315,190.0,779.0,None,0,0,5.0,1977,70 448,6 250 000
"Mellanselsvägen 12, None, Örnsköldsviks",63.42599696639355,18.301355603710476,83.0,1640.0,75.0,1,1,None,1953,39 500,400 000
"Per-Nilsabyn 10, None, Staffanstorps",55.633728,13.2054319,168.0,640.0,None,0,0,7.0,1972,31 126,3 495 000
"Vreta 12, Lisö/Ösmo, Nynäshamns",58.9148445,17.7817364,65.0,1637.0,None,0,0,3.0,1909,26 500,2 000 000
"Folkskolevägen 2, Vendelsö, Haninge",59.18914,18.17974,224.0,1622.0,13.0,0,0,7.0,2004,52 659,8 100 000
"Ugglarp 88, Trunnerup, Skurups",55.5049477,13.63791,115.0,2500.0,None,0,0,4.0,1910,32 442,3 195 000
"Torrlösa 2730, Torrlösa, Svalövs",55.91027,13.1376715,141.0,579.0,35.0,0,0,8.0,1881,54 185,1 745 000
"Lyckåkersvägen 42, LUDVIKA Notgården, Ludvika",60.1335945,15.1647272,150.0,1575.0,None,0,0,5.0,1969,53 781,2 700 000
"Hummelmoravägen 4, Djurö Överby, Värmdö",59.35911,18.6797924,175.0,3618.0,None,0,0,4.0,1932,58 588,5 495 000
"Granitvägen 27, Kallkälldalen, Hagfors",60.0440762691574,13.6839952931584,94.0,888.0,97.0,0,0,4.0,1945,None,150 000
"Hällberga Lillhagen, Hällberga, Eskilstuna",59.3276558,16.59501,164.0,22155.0,None,0,0,8.0,2002,42 666,3 500 000
"Brunnsallén 69, None, Helsingborgs",56.02257,12.7386665,124.0,155.0,57.0,0,0,None,1978,None,3 370 000
"Hults lid 15, Skepparkroken, Ängelholms",56.2903442,12.8148928,184.0,826.0,20.0,0,0,5.0,1978,47 373,6 100 000
"Tomtnäsvägen 5, Lexe, Gävle",60.678257,17.09555,153.0,428.0,102.0,0,0,7.0,1973,46 124,3 495 000
"Målsövägen 2, Kalix-Nyborg, Kalix",65.7774,23.1877232,54.0,2996.0,None,0,0,3.0,1948,47 431,450 000
"Dagsberg Lilla Eggeby 1, Ljunga, Norrköpings",58.57199,16.31908,180.0,1610.0,None,0,0,5.0,1991,52 000,4 650 000
"Aspegränd 4, Brämhult, Borås",57.7306023,12.9954929,147.0,1131.0,100.0,0,0,6.0,1950,52 995,3 200 000
"Sevalla Erikslund 2, Sevalla, Västerås",59.7418976,16.71752,120.0,6200.0,70.0,0,0,6.0,1957,40 506,2 300 000
"Bastebacka 232, None, Uddevalla",58.18932,11.9532394,109.0,880.0,None,0,0,None,1979,None,1 550 000
"Bäckstigen 21, Gustavsberg Lugnet, Värmdö",59.3340569,18.3862972,114.0,147.0,None,0,0,4.0,1961,40 204,3 495 000
"Bygrindsvägen 21C, Lerum - Södra, Lerums",57.76541,12.2792416,None,855.0,None,0,0,6.0,2022,31 400,6 430 000
"Täppgatan 8, Jakobsberg, Västerås",59.60682,16.5253544,146.0,580.0,None,0,0,6.0,1975,46 655,6 195 000
"Rudskogavägen 84, Rudskoga, Kristinehamns",59.05254721455319,14.247994918730962,86.0,1703.0,None,0,0,3.0,1963,None,500 000
"Mats Ålännings gata 10, Torshälla, Eskilstuna",59.4134979,16.478,99.0,788.0,105.0,0,0,4.0,1962,46 815,2 550 000
"Benvedsgränd 2, Bara, Svedala",55.5853655586,13.1807427766,183.0,1063.0,False,0,0,7.0,1973,29 391,4 700 000
"Bergslagsgatan 11, Burhagen, Säters",60.3476448,15.7338762,81.0,1500.0,20.0,0,0,3.0,1921,36 823,1 400 000
"Nyarpsvägen 17, Grönahög, Ulricehamns",57.6948914917,13.5799345964,98.0,1630.0,63.0,0,0,5.0,1954,17 588,650 000
"Enköpingsvägen 100, Bålsta Övergran, Håbo",59.6315727,17.48287,84.0,1197.0,None,0,0,3.0,1934,25 760,2 700 000
"Mellangatan 7, Bromölla, Bromölla",56.0685915844,14.4855291879,123.0,907.0,9.0,0,0,5.0,1971,33 998,1 195 000
"Nobelvägen 3B, Gyttorp, Nora",59.504541405,14.9562938311,115.0,559.0,44.0,1,0,3.0,1967,64 354,1 050 000
"Gullarp 1208, Gullarp, Eslövs",55.861313,13.260582,102.0,835.0,False,0,0,4.0,1909,34 523,1 125 000
"Bökevägen 250, None, Kristianstads",55.80296,14.1155491,110.0,3077.0,None,0,0,None,1949,None,1 600 000
"Myckelby 246, None, Hedemora",60.4286286154,15.9452497674,180.0,3952.0,20.0,1,0,6.0,1909,61 864,2 000 000
"Solvik Nydal 1, Solvik, Arvika",59.649628,12.6457815,150.0,4248.0,False,1,0,5.0,1920,36 195,2 100 000
"Johansgatan 13, Bergsbyn Norra, Skellefteå",64.7252496685,21.0765551217,117.0,1188.0,117.0,0,0,5.0,1966,25 727,3 540 000
"Mellanåsgatan 18, Bohult, Karlskoga",59.33094541347926,14.529424834036423,154.0,1006.0,46.0,1,1,6.0,1916,58 741,2 575 000
"Eksjövägen 64, Bruzaholm, Eksjö",57.64144636375393,15.286781426939163,122.0,1519.0,82.0,0,0,6.0,1939,36 487,670 000
"Ångersvägen 17, Kastlösa, Mörbylånga",56.45763177147227,16.423559434522968,95.0,1936.0,None,1,0,3.0,2020,28 974,3 400 000
"Tvikstavägen 64, Hedemora, Hedemora",60.293718344464466,15.979507498439567,92.0,598.0,92.0,0,0,5.0,1964,38 538,995 000
"Tegelbruksvägen 13, Inre Brevik / Trinntorp, Tyresö",59.2249804528741,18.348768821281947,140.0,2297.0,None,0,0,5.0,2009,31 650,5 200 000
"Marbäcksgatan 7, Oskarström, Halmstads",56.805059018402005,12.965442835675308,107.0,719.0,63.0,0,0,5.0,1956,29 479,1 600 000
"Killingövägen 3, KARLSBY, Motala",58.6368028962,15.1275850079,83.0,829.0,63.0,0,0,4.0,1940,36 400,1 825 000
"Hus 5, None, Jönköpings",57.76844081052676,14.417961553127645,88.0,642.0,None,0,0,3.0,None,None,3 895 000
"Plantslingan 40, Länna, Huddinge",59.20787,18.13399,109.0,None,None,1,0,5.0,2022,21 936,5 300 000
"Spjutgatan 11, LIDKÖPING, Lidköpings",58.499843968421466,13.133398513044643,107.0,591.0,19.0,0,0,5.0,1962,23 862,2 910 000
"Hermelinsgatan 16, Centrum, Jokkmokks",66.60651049758955,19.817977592619222,103.0,1000.0,61.0,0,0,4.0,1960,53 311,1 195 000
"Doktorsgatan 13, Domsjö, Örnsköldsviks",63.26478195390065,18.691727402181296,121.0,1431.0,None,1,0,4.0,1994,40 423,1 550 000
"Tredje Tvärgränd 4, Gullringen, Vimmerby",57.79602374845411,15.710651855848422,107.0,550.0,None,1,0,4.0,1975,41 000,750 000
"Lars Ols väg 42, Sätofta - Nyby, Höörs",55.90450641011816,13.532915833547225,175.0,878.0,None,0,0,6.0,1981,42 146,3 100 000
"Älvsborgsvägen 41, Centrum, Jokkmokks",66.61175705007687,19.80983165210044,83.0,989.0,12.0,1,0,3.0,1967,34 995,430 000
"Vimpelgatan 4, Fridhem, Vänersborgs",58.35784126419893,12.346087184208674,112.0,801.0,40.0,1,0,5.0,1972,36 000,1 650 000
"Grönvallen 33, Avesta, Avesta",60.18508702575525,16.123279339042316,163.0,2440.0,98.0,0,0,5.0,1924,33 883,600 000
"Vinkelgatan 8, None, Hörby",55.85773853177712,13.660079540100996,85.0,1063.0,10.0,0,0,5.0,1918,34 635,2 050 000
"Högbergagatan 7, Borås, Borås",57.73395797621028,12.960417928113298,125.0,881.0,120.0,0,0,6.0,1966,56 167,5 500 000
"Eneby 216, Centrala Sigtuna, Sigtuna",59.6386587849,17.7881916408,175.0,1678.0,False,0,0,7.0,2018,38 000,5 850 000
"Krokshult Änghult, Fröseke, Uppvidinge",56.97128611211307,15.806428727371847,135.0,6880.0,None,0,0,5.0,1928,6 073,1 650 000
"Örnäs 711, Skattkärr, Karlstads",59.47646724333054,13.740240295094457,160.0,2304.0,57.0,0,0,6.0,1983,18 942,3 150 000
"Ängslättsvägen 55-44, Beddingestrand/Lilla Beddinge, Trelleborgs",55.38980681598536,13.429491470114405,223.0,7327.0,39.0,0,0,9.0,1908,33 027,8 850 000
"Stora Tolångavägen 248, Tolånga, Sjöbo",55.6388359,13.7708025,135.0,2415.0,80.0,0,0,5.0,1940,33 248,2 075 000
"Wattmansvägen 31, Kroksta, Örnsköldsviks",63.316864,18.6671429,132.0,637.0,None,0,0,5.0,1974,38 541,1 500 000
"Trollsländevägen 17, Fresta, Upplands Väsby",59.5145264,17.9603615,112.0,221.0,None,0,0,5.0,1974,48 604,4 000 000
"Ingvarsgatan 59, Svartbäcken, Uppsala",59.87686,17.6346416,72.0,654.0,36.0,0,0,5.0,1943,39 265,4 650 000
"Joachim Becks gata 6, Bara, Svedala",55.5834274,13.1786366,161.0,806.0,20.0,0,0,6.0,1973,62 847,3 800 000
"Söderby torgs allé 54, Söderby, Salems",59.20655,17.7877254,161.0,763.0,None,0,0,6.0,2008,33 804,6 450 000
"Hörbyvägen 4-0, Linderöd, Kristianstads",55.9319561337577,13.8243416476986,158.0,1075.0,83.0,0,0,6.0,1935,43 415,2 100 000
"Skogsgatan 21, None, Tomelilla",55.536413557504275,13.962955274351508,None,None,None,0,0,4.0,1983,39 100,2 100 000
"Jonsbo 203, Hyltebruk, Hylte",56.9890417011862,13.2473025229267,55.0,2060.0,None,0,0,4.0,1939,10 500,240 000
"Mellomgårdsgatan 9, Hulta, Borås",57.7148,12.9750128,96.0,516.0,16.0,0,0,5.0,1959,27 089,1 650 000
"Valögatan 10, Rydebäck, Helsingborgs",55.968502,12.7657022,122.0,434.0,35.0,0,0,5.0,1966,None,3 850 000
"Villavägen 9, Bankeryd, Jönköpings",57.8582077,14.128396,164.0,1337.0,38.0,0,0,5.0,1960,37 554,3 175 000
"Konvaljestigen 5, Sikvik, Gävle",60.6731567,17.2717819,105.0,1067.0,105.0,0,0,4.0,1935,56 956,3 095 000
"Nyebo 517, Blomstermåla, Mönsterås",56.9864044,16.3839,62.0,3605.0,None,0,0,2.0,1800,15 659,500 000
"Hällbo 9111, Hällbo, Bollnäs",61.2156525,16.40185,110.0,29861.0,None,0,0,4.0,1909,32 816,2 100 000
"Glasvägen 6, Mörrum, Karlshamns",56.1953052888121,14.7451833365074,123.0,1002.0,55.0,0,0,6.0,1953,48 861,1 950 000
"Alnaryd 112, Alnaryd, Karlskrona",56.3433950479387,15.4335674463325,300.0,1268.0,None,0,0,4.0,1920,None,540 000
"Svedjorna 36B, Hindås, Bollebygds",57.76177,12.4892263,84.0,899.0,None,0,0,4.0,2019,30 902,3 400 000
"Mellanmon 251, Mellanmon, Kalmar",56.6109123,16.2079067,69.0,38492.0,None,0,0,4.0,1909,9 500,2 150 000
"Berg Fridhem, Berg, Skövde",58.5097122,13.7814312,125.0,1671.0,None,0,0,5.0,1909,33 325,2 295 000
"Björkbacken, Västerljung, Trosa",58.9188232,17.4538364,398.0,4615.0,124.0,0,0,9.0,1920,82 449,6 800 000
"Vallonvägen 48, Iggesund - Brunnsnäs, Hudiksvalls",61.6369581881475,17.0647321975963,148.0,701.0,None,0,0,6.0,1983,39 421,1 800 000
"Valhallsvägen 26D, Skälderviken, Ängelholms",56.2705536,12.8437777,170.0,428.0,4.0,0,0,4.0,2010,43 369,7 500 000
"Tångeråsa Södra Berg, None, Lekebergs",59.0686455,14.7766628,84.0,9008.0,None,0,0,2.0,1929,40 679,800 000
"Rådjursvägen 11, Anderslöv, Trelleborgs",55.43528,13.3213844,150.0,410.0,None,0,0,7.0,1981,53 208,3 350 000
"Tidafors 320, Tidafors, Karlstads",59.6452990260556,13.7103376401521,213.0,1925.0,None,0,0,4.0,1925,62 619,1 550 000
"Hertig Carls allé 16, Bregården, Karlskoga",59.32071,14.5168352,124.0,1081.0,76.0,0,0,5.0,1939,56 388,2 575 000
"Tjädervägen 9, Bjärred, Lomma",55.72265,13.0334578,160.0,866.0,None,0,0,6.0,1998,51 300,6 600 000
"Björkhemsgatan 16, Centralt Sollefteå, Sollefteå",63.1676333625,17.2909455236,188.0,1260.0,96.0,0,0,6.0,1948,None,1 570 000
"Skördevägen 10, Ödsmål, Stenungsunds",58.112776224,11.8605350147,106.0,918.0,145.0,0,0,8.0,1972,None,3 500 000
"Galvarevägen 9, Ödeborg, Färgelanda",58.5482421988,11.9711127367,120.0,770.0,False,0,0,4.0,1979,27 273,1 875 000
"Kärrgatan 14, Glimåkra, Östra Göinge",56.3063504123,14.1344238564,140.0,1374.0,180.0,0,0,5.0,1973,14 589,1 300 000
"Bettna-Björkåsen, Bettna, Flens",58.91674204093671,16.629021716980663,100.0,4064.0,120.0,0,0,5.0,1957,23 721,1 400 000
"Kaplansvägen 4, Kyrkbyn/Gammelstad, Luleå",65.64389581131178,22.033794138652098,111.0,1095.0,56.0,1,0,4.0,1936,51 949,2 950 000
"Siste riddarens väg 1, Gamla Älvsjö, Stockholms",59.27559065610866,18.000688151309514,146.0,590.0,76.0,1,0,7.0,1909,39 362,10 900 000
"Myrudden 4, None, Hagfors",60.0910657286,13.7820267677,25.0,3500.0,None,0,0,1.0,None,None,240 000
"Skogsvägen 12, Kyrkheden, Hagfors",60.1780625878132,13.4927653365616,90.0,1004.0,70.0,0,0,None,1955,35 000,500 000
"Rättarvägen 2, Vendelsö, Haninge",59.2059441,18.1927567,140.0,1660.0,70.0,0,0,6.0,1946,29 388,8 000 000
"Södra Rydsbergsvägen 14, Rydsberg, Lerums",57.7501564,12.2552671,169.0,998.0,24.0,0,0,5.0,1971,49 785,5 170 000
"Thaliavägen 6, Bromma Höglandet, Stockholms",59.3236656,17.9385033,157.0,849.0,78.0,0,0,7.0,1927,41 605,15 425 000
"Buxbomsvägen 28, Kungsbacka, Kungsbacka",57.5005845545,12.0918084569,114.0,580.0,False,0,0,4.0,2004,32 400,5 650 000
"Höglundagatan 58, Sunne, Sunne",59.8475,13.1310358,195.0,1737.0,96.0,0,0,None,1973,59 802,2 100 000
"Stadshagsvägen 5, Hammarby Stadshage, Västerås",59.6038857,16.5277615,120.0,658.0,120.0,0,0,5.0,1961,51 080,7 000 000
"Tveten 108, Brodalen, Lysekils",58.4270377629,11.5153365203,53.0,5052.0,30.0,0,1,3.0,1929,26 753,1 710 000
"Dalamöllevägen 147, None, Ängelholms",56.2688044763,12.9443686755,174.0,3142.0,False,1,0,6.0,1940,41 450,4 000 000
"Luntan Granlund 1, Vikingstad, Mjölby",58.3851554218297,15.349535603998076,88.0,2105.0,None,0,0,4.0,1800,None,930 000
"Kullevägen 4, Hälleviksstrand, Orust",58.1227692408,11.4439163756,79.0,148.0,False,0,0,4.0,1890,31 100,5 525 000
"Stationsvägen 33, Grangärde, Ludvika",60.26818064941473,15.008706633894878,147.0,4220.0,36.0,0,0,6.0,1933,40 212,1 200 000
"Enandersgatan 34, Byttorp, Borås",57.722538876,12.917138785,156.0,714.0,60.0,0,0,7.0,1922,33 451,4 200 000
"Rudbecksvägen 12, Tumba, Botkyrka",59.21125198953298,17.816124412172915,152.0,1179.0,41.0,1,0,6.0,1968,30 519,5 000 000
"Pumpgatan 3, Vaggeryd - Götafors, Vaggeryds",57.49188,14.1307755,125.0,1466.0,126.0,0,0,4.0,1976,55 676,2 800 000
"Långkärrsvägen 12, Sanda, Strängnäs",59.42241,16.9921741,55.0,1965.0,None,0,0,3.0,1969,25 028,1 660 000
"Stora Älsjövägen 56A, Olofstorp, Göteborgs",57.7939034,12.1792393,114.0,1119.0,None,0,0,5.0,1945,30 650,2 600 000
"Edsbergs-Via 403, Fjugesta, Lekebergs",59.168335,14.8602142,114.0,4740.0,70.0,0,0,4.0,1954,53 490,1 700 000
"Gökhem Mariedal 1 & 2, Gökhem, Falköpings",58.1669304262,13.4209114546,220.0,4437.0,104.0,0,0,6.0,1909,53 000,655 000
"Per Ols väg 10, Bjärred, Lomma",55.71877,13.033003,116.0,237.0,False,1,0,5.0,2000,43 600,4 200 000
"Oxelgatan 13, Mösseberg, Falköpings",58.1654812643,13.5261686412,117.0,686.0,117.0,1,1,7.0,1978,50 091,1 400 000
"Vallvägen 6, Skee, Strömstads",58.9251380472,11.2704089784,97.0,877.0,97.0,1,0,6.0,1970,44 786,2 100 000
"Torgnyvägen 36, Norra Ängby, Stockholms",59.353650737,17.8957399777,65.0,347.0,59.0,1,1,6.0,1937,31 160,8 200 000
"Smedbystigen 15, Säby-Uthamra, Vallentuna",59.5155305539,18.0260518883,223.0,2200.0,False,0,0,6.0,2012,41 617,7 800 000
"Wredes väg 14, Ronneby, Ronneby",56.211937,15.2650747,78.0,1483.0,None,0,0,4.0,1930,31 069,1 300 000
"Båtsmansvägen 6, Älvängen, Ale",57.9573269733,12.1260519363,158.0,1124.0,23.0,1,1,5.0,1923,30 200,5 300 000
"Blåbärsstigen 1, Stenungsund - Tätort, Stenungsunds",58.0663958755,11.8547761213,97.0,440.0,False,0,0,4.0,1964,34 782,3 410 000
"Tureholm Oxhagen 3, Trosa, Trosa",58.8840490649,17.5164127296,141.0,3455.0,False,1,0,5.0,2007,33 772,4 850 000
"Rosenhällsgatan 13A, None, Eskilstuna",59.3575144168,16.5116202389,135.0,778.0,False,1,0,5.0,1977,70 042,4 000 000
"Levrasjövägen 284, Grödby, Bromölla",56.0848696608,14.5189648465,103.0,2962.0,60.0,0,0,4.0,1946,25 388,795 000
"Granvägen 8, Borrlövsta, Uppsala",59.99994,18.1233521,90.0,1930.0,None,0,0,3.0,1966,40 000,1 700 000
"Stenbrottsgatan 41, Alsike, Knivsta",59.7586759376,17.7716549725,152.0,814.0,15.0,0,0,6.0,2014,49 830,5 900 000
"Vintjärn 145, Vintjärn, Falu",60.8312252383,16.0557533885,116.0,1538.0,58.0,0,0,5.0,1954,43 575,650 000
"Uttervägen 17, Insjön, Nacka",59.3325348,18.32676,172.0,1502.0,None,0,0,7.0,2001,57 789,8 350 000
"Axel Roos gata 10, Lyckhem, Vänersborgs",58.3698417233,12.3351809111,86.0,577.0,40.0,0,0,3.0,1936,36 920,1 850 000
"Ugglestigen 37, Södra Nynäshamn, Nynäshamns",58.88837,17.9303188,96.0,214.0,25.0,0,0,None,1970,52 790,2 300 000
"Nordanskogsvägen 26, None, Norrtälje",60.0717684852,18.7598644139,110.0,2364.0,None,0,0,4.0,2022,22 400,5 500 000
"Sjögatan 1, Hedgrind, Sandvikens",60.6014855152,16.7803145579,239.0,1233.0,130.0,1,0,7.0,1948,55 514,4 270 000
"Påarps backe 6, Påarp, Hässleholms",56.274978392669,13.907276909295,135.0,1125.0,10.0,0,0,5.0,2022,36 600,2 600 000
"Furubergsvägen 8, Lekeryd, Jönköpings",57.77345280084966,14.422219891704714,112.0,1115.0,119.0,1,1,5.0,1964,51 760,3 200 000
"Korngatan 8, Hedeskoga, Ystads",55.45244676346946,13.798144719465718,138.0,876.0,13.0,0,0,4.0,1965,75 614,3 750 000
"Näshultavägen 18, Älvsjö - Örby, Stockholms",59.26646884275919,18.028258058225873,97.0,621.0,122.0,1,0,9.0,1947,32 000,7 300 000
"Önskehemsvägen 4, Kårtorp, Norrköpings",58.54678039999999,16.2021787,77.0,2812.0,33.0,0,0,3.0,2007,35 600,2 600 000
"Huldrornas väg 27, Älvängen, Ale",57.94638,12.11959,127.0,None,None,0,0,5.0,None,19 800,3 650 000
"Eriksgatan 3, Huskvarna Söder, Jönköpings",57.77892206986879,14.277027534203338,131.0,724.0,88.0,0,0,4.0,1926,55 462,3 150 000
"Olivgatan 5, Ödåkra, Helsingborgs",56.10294824178763,12.749827112397305,76.0,823.0,30.0,1,0,4.0,1962,None,1 850 000
"Torkebacken 2, Ronneby, Ronneby",56.197290632641796,15.314646650967028,141.0,1728.0,22.0,1,0,None,1925,29 800,695 000
"Valhallagatan 20, None, Höörs",55.92996584431325,13.556865405974381,135.0,456.0,None,0,0,6.0,1965,45 228,2 900 000
"Böcklinge 4, Böcklinge, Eskilstuna",59.2962115213,16.215469041,156.0,2762.0,False,1,1,7.0,1909,45 471,2 750 000
"Djupa Klanghörnsvägen 4446, None, Bollnäs",61.2874225068,16.572247466,88.0,820.0,52.0,1,1,5.0,1915,33 714,1 100 000
"Fagersta byväg 13, Fagersta By, Borlänge",60.4721115055231,15.495351971621961,213.0,13069.0,2.0,0,0,4.0,1909,18 760,3 975 000
"Bråten Slottet , Åsaka, Trollhättans",58.2173733906,12.3488423059,50.0,6070.0,30.0,0,0,2.0,1966,32 000,1 160 000
"Edevägen 9, Skogstorp, Eskilstuna",59.32102998803512,16.486556289387064,86.0,826.0,99.0,1,0,3.0,1961,38 139,2 800 000
"Lärksångsvägen 6, Linghem, Linköpings",58.4235761905049,15.785315457170169,114.0,841.0,115.0,1,0,4.0,1979,17 780,5 600 000
"Ringvägen 8, Alstermo, Uppvidinge",56.97027843597604,15.662513448279295,91.0,1444.0,90.0,1,0,4.0,1970,34 948,1 000 000
"Olovs väg 29, Södertälje, Södertälje",59.1811828911014,17.60544984326464,113.0,884.0,118.0,1,0,7.0,1967,35 354,3 345 000
"Gäddeholm 56, Gäddeholm, Västerås",59.547816487398094,16.67330410800211,90.0,2151.0,None,1,0,5.0,1780,51 322,4 000 000
"Husby-Sjutolfts-Nibble 2, Ekolsund, Enköpings",59.66662427338789,17.326514401236036,213.0,1726.0,None,0,0,5.0,2011,44 626,3 500 000
"Kaggetorpsvägen 210, Kaggetorp, Trollhättans",58.2769346285,12.3280186928,112.0,362.0,False,1,1,5.0,1978,25 127,1 795 000
"Vreten Färna 2, Färna, Skinnskattebergs",59.792169947236246,15.876911520175499,137.0,1343.0,None,0,0,4.0,1930,36 857,2 200 000
"Sandbol Sörgården , Kila, Säffle",59.2205386495,12.7080745312,105.0,33415.0,30.0,1,0,5.0,1956,37 551,690 000
"Siktgatan 4, Luleå, Luleå",65.59257778585769,22.213436325783878,104.0,1272.0,100.0,1,0,5.0,1968,34 954,3 500 000
"Aspgatan 5, Handskeryd, Nässjö",57.64187012400077,14.718721290651736,103.0,822.0,98.0,1,0,7.0,1969,None,2 750 000
"Oxbrovägen 17, Saxdalen, Ludvika",60.14484645466188,14.983680173176545,97.0,1492.0,123.0,1,0,5.0,None,57 356,730 000
"Åsens väg 4, Torsby, Torsby",60.135752906961145,12.982039966766262,120.0,1500.0,50.0,0,0,5.0,1939,44 052,1 200 000
"Jakobsbergsgatan 20, None, Kristinehamns",59.31305134916741,14.117964238593574,142.0,1079.0,10.0,0,0,6.0,1909,45 861,975 000
"Kristinebergsgatan 7, Kristineberg, Borås",57.70863193247094,12.938104987940664,172.0,1172.0,33.0,0,0,6.0,1910,40 900,3 650 000
"Strandvägen 23B, Färingsö Stenhamra, Ekerö",59.33191688627859,17.678943456553277,230.0,1042.0,40.0,0,0,7.0,2013,59 420,10 050 000
"Härdaregatan 4, Skoftebyn, Trollhättans",58.26706716080201,12.279612401155092,138.0,764.0,45.0,0,0,5.0,1956,21 555,2 400 000
"Granliden 3, Forshaga, Forshaga",59.51727306342081,13.482432866567565,120.0,1208.0,117.0,1,0,5.0,1973,112 042,1 300 000
"Stationsesplanaden 11, Arbrå, Bollnäs",61.469750088273074,16.37519980062682,83.0,1129.0,83.0,1,0,3.0,1949,37 889,870 000
"Övre Svartlå 202-208, Svartlå, Bodens",66.0124902524,21.1771199193,240.0,1588.0,False,0,0,8.0,1982,120 000,565 000
"Norrbyvägen 9, Brottby, Vallentuna",59.61058943035377,18.306419594177996,35.0,2370.0,None,1,0,2.0,1952,None,1 800 000
"Båtsmansvägen 2, Bällsta, Vallentuna",59.524667990547826,18.076315322444128,158.0,1378.0,8.0,1,0,6.0,1956,53 887,6 400 000
"Törnrosavägen 12, Arontorp / Öland, Mörbylånga",56.6429247346,16.5350330034,97.0,1170.0,False,1,0,4.0,1989,46 186,2 600 000
"Vässarögatan 13, None, Helsingborgs",55.9602242,12.7641592,145.0,389.0,None,0,0,7.0,2005,44 981,5 950 000
"Emausvägen 17, Lövboås, Hallstahammars",59.6222343,16.2407188,86.0,585.0,34.0,0,0,3.0,1959,38 775,2 150 000
"Långby 27, Långby, Hudiksvalls",61.7853530278425,16.8465025220304,142.0,1670.0,48.0,0,0,5.0,1909,43 233,1 650 000
"Rönngatan 8, Huskvarna Söder, Jönköpings",57.7828,14.2711535,115.0,650.0,70.0,0,0,6.0,1964,37 882,3 350 000
"Södra vägen 2, Östra Ljungby, Klippans",56.188736,13.0664,106.0,637.0,33.0,0,0,4.0,1980,13 244,1 310 000
"Långsjövägen 15, Almunge, Uppsala",59.8785858,18.0320435,158.0,2564.0,15.0,0,0,7.0,2006,50 058,5 000 000
"Södra Rörumsvägen 6, None, Höörs",55.9396439,13.5598612,105.0,1021.0,103.0,0,0,5.0,1968,59 892,2 050 000
"Sandbacksvägen 16, Tormestorp, Hässleholms",56.11294,13.743453,184.0,826.0,62.0,0,0,6.0,1973,59 920,3 000 000
"Filaregatan 14, Rosenberg, Tidaholms",58.16813907778929,13.960708290348512,132.0,810.0,25.0,1,0,6.0,1972,31 800,1 700 000
"Simpnäsvägen 585, Lervik, Norrtälje",59.8900360761921,18.9671354013418,204.0,6099.0,None,0,0,7.0,1909,None,4 100 000
"Digrudavägen 17, Herräng, Norrtälje",60.0839348,18.6000271,134.0,1727.0,15.0,0,0,3.0,1700,33 620,1 400 000
"Startsträckan 11, Snöstorp, Halmstads",56.67547,12.918335,120.0,341.0,6.0,0,0,5.0,2018,23 862,3 700 000
"Sj-Vägen 5, Viskan, Sundsvalls",62.4481241601644,16.4409499140252,110.0,3848.0,51.0,1,1,5.0,1929,2 600,300 000
"Strandabjärsvägen 15, Stråvalla - Frillesås, Varbergs",57.2887535,12.1762705,115.0,13366.0,115.0,0,0,4.0,1968,36 070,2 700 000
"Furubackavägen 18, Malmslätt, Linköpings",58.41126,15.5130854,120.0,1273.0,128.0,0,0,5.0,1946,26 326,4 200 000
"Knaftvägen 7, Södermalm, Lycksele",64.5888061458237,18.6652692594154,148.0,963.0,62.0,0,0,7.0,1958,36 453,2 120 000
"Villa stenskallehult 107, Stenskallehult, Kalmar",56.5942039,15.9723454,195.0,1781.0,None,0,0,7.0,1932,70 200,2 000 000
"Fyrvägen 8, Sjölyckan, Mariestads",58.71973,13.8531742,124.0,1156.0,None,0,0,6.0,2022,None,4 300 000
"Schottisgatan 2, Dansgatorna, Sjöbo",55.6366348,13.7238741,114.0,763.0,14.0,0,0,4.0,1983,35 467,2 370 000
"Adinalvägen 180, Färlöv, Kristianstads",56.1020326327387,14.0624390013935,107.0,2200.0,None,0,0,4.0,1909,30 354,1 855 000
"Vitbergsgatan 21, Haga, Härnösands",62.6177689268706,17.8989915389371,134.0,750.0,25.0,0,0,5.0,1975,45 966,1 550 000
"Ljungrydavägen 6, Jämshög, Olofströms",56.23888,14.5299387,112.0,1567.0,112.0,0,0,4.0,1969,37 743,800 000
"Fastlagsvägen 11, Hovshaga, Växjö",56.90651,14.7864351,134.0,763.0,213.0,0,0,4.0,1974,44 683,5 050 000
"Rävsnäs bryggväg 16, Räfsnäs, Norrtälje",59.7516952162833,19.0760882095424,113.0,1673.0,15.0,0,0,4.0,1960,6 600,2 850 000
"Mosskullestigen 29A, Tumlehed, Göteborgs",57.727434519689076,11.738757088795856,349.0,1194.3,None,1,0,7.0,1993,47 800,9 000 000
"Lindesnäsvägen 5B, Hagaström, Gävle",60.67155,17.0671616,152.0,424.0,None,0,0,7.0,1975,38 350,2 870 000
"Stallvägen 13, Färjegårdarna, Borlänge",60.47031589189,15.4738107197325,109.0,573.0,None,0,0,5.0,1977,50 414,2 000 000
"Dalavägen 64, Harplinge, Halmstads",56.75034,12.726799,74.0,780.0,48.0,0,0,2.0,1920,26 202,2 450 000
"Flugsvampsvägen 15, Ekeby-Almby, Örebro",59.2576710593484,15.3243343089321,170.0,1421.0,None,0,0,6.0,2002,49 656,5 300 000
"Basilikagränd 1, Färjestaden, Mörbylånga",56.66388,16.4828281,115.0,494.0,12.0,0,0,4.0,1960,None,2 000 000
"Häggbacken 4, Smedby, Norrköpings",58.572525,16.2274437,73.0,671.0,71.0,0,0,6.0,1955,55 940,4 450 000
"Fransåker 202, None, Sigtuna",59.643,17.8250141,80.0,2823.0,None,0,0,3.0,1978,25 000,3 900 000
"Gärdesvägen 7, Västra Jakobsberg, Järfälla",59.4355469,17.8194122,212.0,825.0,17.0,0,0,10.0,1966,39 155,7 150 000
"Östergårdsvägen 3, Bor, Värnamo",57.1097527,14.1734362,123.0,1225.0,162.0,0,0,6.0,1962,78 698,1 320 000
"Finnholmsvägen 9, None, Huddinge",59.2370071,18.00744,120.0,1564.0,60.0,0,0,6.0,1930,38 795,6 985 000
"Marias väg 22, Mellbystrand, Laholms",56.51685,12.954565,100.0,571.0,6.0,0,0,5.0,2012,24 520,4 650 000
"Spiggvägen 3, Saxnäs, Mörbylånga",56.6858521,16.484211,51.0,510.0,22.0,0,0,3.0,1965,21 650,2 500 000
"Valbovägen 299, Valbo, Gävle",60.63642,16.9922314,132.0,1517.0,54.0,0,0,4.0,1925,37 600,3 300 000
"Lokal 11, None, Enköpings",59.6512375,17.1356888,72.0,None,None,0,0,1.0,None,None,1 499 000
"Kryddvägen 9, Borsökna, Eskilstuna",59.3350754,16.4369926,113.0,996.0,133.0,0,0,6.0,1969,33 849,3 100 000
"Sonjas väg 1, Åsa - Bråtaviken, Kungsbacka",57.3458229184499,12.0941081833746,170.0,1767.0,24.0,0,0,6.0,1982,42 742,5 000 000
"Dalbygatan 4, Södertälje Centrum, Södertälje",59.1991272,17.621191,135.0,1436.0,59.0,0,0,3.0,1900,79 583,3 800 000
"Knallasbenning 61 & 63, Avesta, Avesta",60.16547,16.0721588,164.0,2445.0,48.0,0,0,5.0,1975,61 951,1 340 000
"Kungsbackavägen 123, Rävekärr, Mölndals",57.6319351,12.0417671,129.0,1002.0,50.0,0,0,5.0,1968,48 000,5 000 000
"Älnebacka gård , Valbo-Ryr, Munkedals",58.485643944,11.8524944819,180.0,1400.0,30.0,1,0,7.0,1909,40 500,1 950 000
"Brännmästarevägen 38, Åkarp, Burlövs",55.6509638469,13.1038248678,140.0,417.0,False,0,0,6.0,1971,34 000,4 050 000
"Lövkällevägen 10, Mogata, Söderköpings",58.4529088725,16.4541384638,173.0,1045.0,8.0,1,0,6.0,1969,45 716,2 750 000
"Mårdvägen 26, Bromma Äppelviken-Stora Mossen, Stockholms",59.331604,17.9701042,228.0,833.0,59.0,0,0,8.0,1923,67 531,25 000 000
"Månstigen 1, None, Tranemo",57.47975,13.5557833,112.0,970.0,39.0,0,0,5.0,1973,38 438,1 030 000
"Parkgatan 15, Kinna, Marks",57.5140173074,12.6880305819,247.0,3178.0,90.0,0,0,8.0,1975,None,4 400 000
"Vilg Skogsberg , Fotskäl, Marks",57.481271266,12.4648231839,49.0,11982.0,5.0,1,0,2.0,1880,22 787,1 195 000
"Hökgatan 27, Centrala Boden, Bodens",65.816424735,21.7071953491,108.0,1016.0,40.0,0,0,5.0,1960,36 833,1 640 000
"Storgatan 9E, Askersund, Askersunds",58.87825188,14.9027143863,105.0,106.0,False,1,1,3.0,1971,30 630,2 700 000
"Matarengivägen  63, Övertorneå, Övertorneå",66.3943645552,23.6469274734,99.0,1456.0,99.0,1,0,None,1950,45 559,830 000
"Sankt Knuts väg 12, Dalby, Lunds",55.6682104228,13.3409724283,126.0,1081.0,126.0,0,0,5.0,1969,41 525,4 300 000
"Grönkullevägen 2, Hällestrand, Strömstads",58.9946339867,11.1864481404,88.0,910.0,88.0,0,1,6.0,1965,39 400,2 000 000
"Lyrvägen 24, Öhmans Hage, Smedjebackens",60.1501935782,15.4092900306,127.0,767.0,46.0,0,0,5.0,1972,30 818,1 200 000
"Gubbelyckan Sjöboda 160, Vargön, Vänersborgs",58.3761693641,12.3748282033,366.0,4165.0,60.0,1,1,9.0,2008,62 334,7 750 000
"Mogatan 44, Duvhällarna, Hallstahammars",59.6302719,16.2336864,116.0,755.0,None,0,0,5.0,1993,40 941,2 125 000
"Runstensgatan 7, Bodafors, Nässjö",57.466441822479,14.76004971864412,109.0,1250.0,11.0,0,0,4.0,1938,36 901,1 120 000
"Fågelforsvägen 10, Högsby, Högsby",57.1684047452,16.0071387113,102.0,1410.0,20.0,0,0,6.0,1935,None,315 000
"Åvägen 34, ÅHUS -  Äspet, Kristianstads",55.91898006993561,14.292131626416733,84.0,1617.0,80.0,1,0,4.0,1963,37 555,3 700 000
"Tomtegatan 7, Oskarström, Halmstads",56.808076162151316,12.96652267371106,141.0,927.0,13.0,1,0,6.0,1978,23 292,1 050 000
"Fridolfsbergsgatan 6, Hova, Gullspångs",58.853390026157285,14.204929167958776,176.0,1120.0,57.0,1,1,7.0,1976,35 240,950 000
"Videgatan 3, Ödeshög, Ödeshögs",58.278627675305536,14.6427094844955,168.0,1131.0,None,1,0,6.0,1947,None,930 000
"Bäckåsarna Brudbäcksdalen 1, Råda, Hagfors",60.0331263909,13.5891045229,158.0,7537.0,88.0,0,0,6.0,1940,39 681,730 000
"Klörupsvägen 46, Centralt, Trelleborgs",55.385887392,13.1549510094,104.0,495.0,False,0,0,3.0,1913,65 897,2 400 000
"Mälstavägen 19, Ekskogen, Vallentuna",59.64190330325081,18.231970789297076,155.0,968.0,20.0,1,1,8.0,1966,39 029,3 850 000
"Åsa 3, Stallarholmen, Strängnäs",59.393807423782846,17.18576591214642,59.0,1056.0,None,0,0,3.0,1929,52 426,1 750 000
"Skottlanda 2094, Skottlanda, Kristinehamns",59.097047155839824,14.263736506651716,150.0,2858.0,None,0,0,6.0,1975,39 854,800 000
"Ängsullsvägen 23, Nol, Ale",57.91087,12.07035,125.0,None,None,1,0,5.0,2020,15 000,3 500 000
"Tallberg 57, Nyåker, Nordmalings",63.78406561149196,19.37157626648596,60.0,1660.0,None,0,0,3.0,1904,None,150 000
"Annickevägen 10, Hagfors Hagälven, Hagfors",60.0186252465,13.6806080963,66.0,1139.0,False,0,0,3.0,1956,27 800,465 000
"Äsebo 1, Äsebo - Bottnaryd, Jönköpings",57.7064857,13.77083,150.0,7446.0,4.0,0,0,5.0,1915,42 700,2 050 000
"Trojavägen 2, Husum, Örnsköldsviks",63.3500137,19.1551189,92.0,880.0,72.0,0,0,6.0,1963,49 055,475 000
"Rotbacken 1, Alnö, Sundsvalls",62.431572,17.41293,105.0,121.0,105.0,0,0,5.0,1968,44 432,1 550 000
"Hallongränd 2, Lindsdal, Kalmar",56.74226,16.2977333,133.0,886.0,None,0,0,4.0,1973,36 750,2 375 000
"Granitvägen 12, Munga, Västerås",59.7440607739673,16.5181307950687,112.0,2376.0,31.0,0,0,6.0,1965,51 536,1 900 000
"Lövvägen 4, Södra Kroppkärr, Karlstads",59.39853,13.5375786,187.0,1044.0,None,0,0,6.0,1918,37 004,5 000 000
"Måsvägen 4, Fegen, Falkenbergs",57.10549253613308,13.034984365998724,125.0,1145.0,67.0,1,0,4.0,1969,65 200,1 275 000
"Kråkåsvägen 1A-D, Kråkåsen - Nykroppa, Filipstads",59.61766538799764,14.303075759256442,343.0,2209.0,None,0,0,None,1876,155 700,575 000
"Masmästarevägen 8, Stackfallet, Karlskoga",59.3356171,14.5658522,67.0,617.0,62.0,0,0,3.0,1939,46 530,1 100 000
"Hagensvägen 49, Saxtorp, Landskrona",55.8363964726102,12.9463555519674,147.0,965.0,35.0,0,0,4.0,2008,44 524,5 200 000
"Sundsliden 153, Hemavan/Tärnaby, Storumans",65.68545,15.3873577,82.0,2212.0,62.0,0,0,4.0,1992,28 576,2 000 000
"Hammardalsslingan 35, Hammardal/Solbacken, Huddinge",59.2296844995822,18.037803714185,54.0,2099.0,15.0,0,0,3.0,1981,37 427,3 475 000
"Sandåsvägen 5, Sofieberg, Halmstads",56.6991539,12.8555841,166.0,1007.0,77.0,0,0,6.0,1999,66 123,5 750 000
"Skarbjörka 200, None, Kumla",59.1495476,15.28761,85.0,2628.0,60.0,0,0,6.0,2022,None,3 800 000
"Bullås 174, Alnö, Sundsvalls",62.42999,17.4743328,200.0,1587.0,14.0,0,0,6.0,2008,15 100,4 350 000
"Forsa 92, None, Nordanstigs",61.93769122216204,17.17900462277256,110.0,835.0,None,0,0,4.0,1929,None,150 000
"Bremnäs 130, Lycke, Kungälvs",57.87172,11.7243528,167.0,938.0,40.0,0,0,8.0,1959,39 755,4 490 000
"Linnégatan 8, Rosenlund, Jönköpings",57.78539,14.2261858,115.0,970.0,137.0,0,0,6.0,1963,33 660,3 710 000
"Malvastigen 17A, Edsängen, Sollentuna",59.452701344346,17.9576936703293,134.0,1003.0,48.0,0,0,6.0,1971,29 826,6 700 000
"Bergstigen 2, Järpen, Åre",63.3510609845812,13.4632235672235,106.0,1139.0,None,0,0,4.0,1973,29 180,1 100 000
"Vändstigen 6, Fräntorp, Göteborgs",57.7275543,12.0500259,111.0,386.0,49.0,0,0,5.0,1936,43 075,4 800 000
"Rasbo prästgård Järstadal 126, Rasbo, Uppsala",59.95837,17.8781719,121.0,1490.0,27.0,0,0,4.0,1982,25 500,3 600 000
"Linnarhultsvägen 43B, Linnarhult, Göteborgs",57.7822037,12.0590019,247.0,1064.7,6.0,0,0,8.0,1973,34 100,4 000 000
"Smedbyvägen 32B, Smedby, Kalmar",56.6744957,16.2466087,142.0,1054.0,40.0,0,0,6.0,1905,39 000,1 850 000
"Hövdingegatan 5, Stattena, Hässleholms",56.15128,13.7723179,82.0,1082.0,80.0,0,0,4.0,1953,44 135,1 720 000
"Stallgatan 14G, Bosebygd, Mullsjö",57.92249,13.8830853,94.0,117.0,None,0,0,4.0,1979,29 499,1 565 000
"Strandvägen 6, Husum, Örnsköldsviks",63.3390923,19.1655521,94.0,1446.0,80.0,0,0,4.0,1945,47 086,430 000
"Norra Brunnsvägen 37, Ramlösa, Helsingborgs",56.0290417063849,12.7406363094572,137.0,720.0,None,1,0,4.0,1968,43 560,4 250 000
"Timmermansgatan 14, Råå, Helsingborgs",56.0014153,12.7355719,107.0,386.0,60.0,0,0,5.0,1880,43 954,8 000 000
"Dalkärrsvägen 15, Tullinge, Botkyrka",59.1971024215,17.9171784999,127.0,2841.0,119.0,1,0,8.0,1969,32 000,4 995 000
"Torget 1, Våmhus, Mora",61.1388709322,14.40866,115.0,2021.0,12.0,1,0,4.0,1909,44 629,1 200 000
"Västanåvägen 64-4, Näsum, Bromölla",56.1778015256,14.4808640105,114.0,3402.0,41.0,0,0,6.0,1963,42 930,800 000
"Långsjövägen 23, Garns-ekskogen/brottby, Vallentuna",59.610928,18.371696,69.0,2787.0,1.0,1,0,4.0,1969,41 219,2 650 000
"Funningevägen 5, Funningen, Borås",57.6951670173,12.8954764861,115.0,2635.0,90.0,0,0,5.0,1929,56 440,1 850 000
"Duellvägen 27, Blåsut, Vänersborgs",58.376162216,12.2887039513,126.0,676.0,125.0,1,0,4.0,1965,36 769,2 850 000
"Rombovägen 22, Färnäs, Mora",61.0064939341,14.6145416004,101.0,1117.0,101.0,1,0,4.0,1963,38 399,2 100 000
"Västra Karaby kyrkoväg 69-2, Västra Karaby, Kävlinge",55.80817,13.0472527,150.0,840.0,None,0,0,5.0,1909,34 525,1 800 000
"Katrinebergsgatan 36, Katrineberg, Tibro",58.4106605646,14.1776375333,107.0,625.0,False,0,0,4.0,1973,28 334,1 800 000
"Repslagaregatan 6, Hudiksvall, Hudiksvalls",61.726196084,17.106766347,58.0,276.0,30.0,0,1,2.0,1993,39 789,1 875 000
"Torpvägen 2, Listerby, Ronneby",56.1864359868,15.3951744162,172.0,1000.0,False,0,0,6.0,1969,46 133,2 200 000
"Semestergatan 13, Moröbacke, Skellefteå",64.75375,21.04965,194.0,927.0,29.0,0,0,5.0,1991,36 721,4 200 000
"Äskya 111, None, Älmhults",56.5629621713,14.184872487,93.0,6440.0,22.0,0,0,6.0,None,18 974,850 000
"Grönvallen 39, Rembo, Avesta",60.1858200247,16.1214476082,110.0,3825.0,46.0,1,0,4.0,1912,44 632,1 300 000
"Björkvägen 23, Centrala Kil, Kils",59.49981,13.3244963,104.0,747.0,104.0,0,0,3.0,1965,41 035,1 325 000
"Högvägen 13, Östanå, Sandvikens",60.6308562104,16.8081503764,180.0,1562.0,90.0,0,0,7.0,1939,37 779,2 300 000
"Sörgårdsvägen 6, Höreda, Eksjö",57.6165375731,15.0262187203,110.0,885.0,141.0,1,0,6.0,1973,36 797,1 200 000
"Solrosvägen 60, Gråbo - Olstorp, Lerums",57.8190009279,12.2689060206,55.0,1604.0,55.0,0,0,3.0,1979,24 703,2 100 000
"Rörverksgatan 138, Bäckby, Västerås",59.60656649677552,16.467463542995382,160.0,622.0,None,0,0,6.0,1974,50 918,2 100 000
"Karlsgatan 3, Virsbo, Surahammars",59.875181724275016,16.04377118363598,132.0,1080.0,86.0,1,1,5.0,1945,25 507,600 000
"Sundsvägen 41, Domsjö, Örnsköldsviks",63.26141984943829,18.68675584022041,125.0,1000.0,61.0,1,0,5.0,1954,38 262,1 250 000
"Sjögarp Nytorp 1, Mjölby, Mjölby",58.29852567909824,15.081188800134793,134.0,2534.0,None,0,0,5.0,1929,7 644,3 150 000
"Gudfastegatan 19, Forssa, Borlänge",60.502268604441646,15.419331674887731,112.0,992.0,70.0,0,0,4.0,1952,40 421,2 645 000
"Värlebo 120, 122 och 124, Värlebo, Högsby",57.0530646567,16.200870789,121.0,9855.0,13.0,0,0,3.0,None,None,425 000
"Rådmansvägen 9, Gammelstad, Luleå",65.63038299654103,22.026856471114378,142.0,884.0,184.0,1,0,7.0,1975,35 610,3 750 000
"Toftvägen 9, Norra Kopparmora, Värmdö",59.340673232439784,18.57045040603092,106.0,1941.0,None,0,0,4.0,1971,37 600,4 800 000
"Södergatan 9, Högsäter, Färgelanda",58.6459286991,12.05460566,111.0,1510.0,55.0,0,0,5.0,1956,None,680 000
"Östra Sand 3, Bredsättra, Borgholms",56.8464512879,16.7966867698,115.0,1340.0,False,0,0,4.0,1977,45 200,970 000
"Gjutängsvägen 51, Västra Gärdet, Falkenbergs",56.900909381652816,12.478785131000897,170.0,682.0,47.0,1,1,6.0,1970,42 532,3 150 000
"Haraldsgården 22, Hedared, Borås",57.80467014788458,12.732739106274488,127.0,1334.0,33.0,1,0,5.0,1983,38 353,3 100 000
"Gråbergsvägen 18A, Klinten, Alingsås",57.9183820008136,12.530144542248484,102.0,1361.0,8.0,0,0,4.0,1927,None,4 050 000
"Stavsjövägen 44, Älvsjö / Örby, Stockholms",59.26988,18.0285187,52.0,843.0,None,0,0,None,1920,None,5 750 000
"Västmannagatan 5, Karlshagen, Degerfors",59.24786975614837,14.431784622117991,105.0,724.0,136.0,1,0,4.0,1970,37 410,950 000
"Slåttervägen 6, Getinge, Halmstads",56.81483632551979,12.738414318762814,127.0,856.0,65.0,0,0,5.0,1975,30 784,2 650 000
"Nötskrikevägen 16, Uttervik, Nyköpings",58.62298268387921,16.897655453534817,59.0,2051.0,3.0,0,0,3.0,1975,29 184,1 275 000
"Dragbacksvägen 10, Hagaström, Gävle",60.670444065473376,17.059911497382775,140.0,1330.0,64.0,1,1,6.0,1966,12 900,4 600 000
"Baggbron 39, Baggbron, Skinnskattebergs",59.88461015909585,15.628690645725106,50.0,3980.0,42.0,1,0,2.0,1944,12 400,675 000
"Alvägen 15, Erikslund, Bodens",65.82477911667178,21.737935907477716,145.0,1088.0,72.0,0,0,6.0,1975,42 388,2 295 000
"Strömgatan 25, Skived, Forshaga",59.52197148979391,13.466126817619857,119.0,390.0,5.0,0,0,5.0,1973,35 780,1 200 000
"Skämbylötvägen 13, Åkers Styckebruk, Strängnäs",59.26866565690663,17.10653417560401,146.0,782.0,10.0,0,0,7.0,1980,47 989,2 350 000
"Morkullegatan 9, Färjestaden / Öland, Mörbylånga",56.6448221241,16.479252852,107.0,1472.0,107.0,1,0,4.0,1973,53 000,2 200 000
"Greta Arwidssons väg 31, Gamla Uppsala, Uppsala",59.8913727,17.6523037,119.0,231.0,None,0,0,4.0,2013,43 172,4 995 000
"Stora Granlundsvägen 7, Rimbo, Norrtälje",59.7652103984114,18.4165648921804,125.0,1725.0,26.0,0,0,5.0,1927,33 211,3 337 000
"Hammarbacksvägen 25, Oxie Kyrkby, Malmö",55.5508156,13.0946989,127.0,525.0,21.0,0,0,6.0,1976,51 202,3 200 000
"Skogsstigen 2, Centralt, Stenungsunds",58.073,11.8274021,216.0,2526.0,3.0,0,0,5.0,1943,75 993,7 100 000
"Yxenhaga 3, Hok, Vaggeryds",57.410305,14.3124809,65.0,806.0,None,0,0,1.0,1941,5 086,639 000
"Morängatan 63A, Alsike, Knivsta",59.7607536,17.7779026,129.0,None,None,1,0,5.0,2018,28 932,4 000 000
"Ringvägen 119, Gessie Villastad, Vellinge",55.4994667418467,12.9542608864863,80.0,999.0,None,0,0,4.0,1964,55 644,2 475 000
"Önnerts väg 7, None, Ronneby",56.214222,15.2685537,78.0,489.0,78.0,0,0,5.0,None,28 125,1 050 000
"Skördestigen 4, Gammelstad, Luleå",65.6484756,21.9859467,110.0,792.0,70.0,0,0,5.0,1969,39 726,3 510 000
"Frillesås Furustig 1, Frillesås, Kungsbacka",57.321888,12.1640053,155.0,1017.0,None,0,0,4.0,1957,34 824,5 350 000
"Själsö Krokvägen 40, Själsö/Brissund, Gotlands",57.6995049,18.3718987,116.0,2563.0,10.0,0,0,4.0,2002,54 650,5 000 000
"Rumängsvägen 18, Vedevåg, Lindesbergs",59.5291748,15.3017759,105.0,1404.0,75.0,0,0,4.0,1940,31 719,1 575 000
"Vallgatan 46, Arbrå, Bollnäs",61.4745331,16.3749866,80.0,814.0,70.0,0,0,4.0,1965,35 950,650 000
"Ubåtsvägen 20, Alnö, Sundsvalls",62.4252129,17.4325619,124.0,1219.0,None,0,0,6.0,2006,37 400,3 950 000
"Kornvägen 5, SMEDJEBACKEN Skjutbaneområdet, Smedjebackens",60.1491966,15.4040909,107.0,1091.0,6.0,0,0,5.0,1974,47 500,900 000
"Klockvägen 8, Mantorp, Mjölby",58.34966,15.2925167,122.0,1111.0,10.0,0,0,6.0,1912,55 484,2 975 000
"Vikingavägen 14, Mörrum, Karlshamns",56.1952248,14.7652359,105.0,990.0,None,0,0,4.0,1971,53 531,1 300 000
"Uddnäsvägen 23, Stäket, Järfälla",59.47541877867685,17.79511187539577,347.0,2846.0,145.0,0,0,12.0,1990,100 700,16 750 000
"Gustavsberg 2, Råby, Nyköpings",58.8415947,16.9332047,75.0,6548.0,48.0,0,0,4.0,2008,23 800,2 000 000
"Burövägen 13, Hälsö, Öckerö",57.73378,11.6542492,73.0,841.0,73.0,0,0,5.0,1956,35 300,4 500 000
"Alpbacken 9, Stortorp, Huddinge",59.2401543,18.12579,158.0,494.0,None,0,0,7.0,2020,31 700,7 600 000
"Miklagårdsvägen 5, Brännaregården, Olofströms",56.28601,14.5470037,134.0,682.0,None,0,0,5.0,1980,30 609,1 800 000
"Mellersta Skogsvägen 26, Höllviken, Vellinge",55.4102058,12.9624233,189.0,1140.0,None,0,0,5.0,2017,32 178,13 500 000
"Rådjurspåret 2, Kisäng, Nyköpings",58.8159866,16.8024273,77.0,1876.0,None,0,0,3.0,1983,32 563,2 000 000
"Söderforsgränd 7, Brunnby Vik, Upplands Väsby",59.5261955,17.9437981,176.0,766.0,90.0,0,0,8.0,1972,44 486,6 450 000
"Hällstigen 2, Mockebo, Oskarshamns",57.285,16.4789829,193.0,1003.0,8.0,0,0,7.0,1932,47 914,4 200 000
"Tuvvägen 7, Centralt Kramfors, Kramfors",62.926138715,17.8038260943,95.0,1122.0,95.0,1,0,4.0,1969,58 673,1 700 000
"Johan Anders väg 32B, Sunnanå, Burlövs",55.6108887354,13.1264593678,130.0,768.0,False,1,0,5.0,1930,39 044,2 800 000
"Patron Ahlmanns allé 22, Nödinge, Ale",57.8877983938,12.0527803598,115.0,542.0,False,1,0,4.0,2006,41 677,5 100 000
"Furuvägen 14, Bankeryd, Jönköpings",57.865914562,14.1138004074,89.0,1143.0,89.0,1,0,3.0,1960,42 915,3 650 000
"Södergatan 15, Oskarström, Halmstads",56.79855,12.964872,112.0,1006.0,35.0,0,0,5.0,1973,39 152,1 650 000
"Tiarp Marken 299, Onsjö, Halmstads",56.700509673,12.7688336735,149.0,3622.0,False,0,0,4.0,1909,49 000,2 200 000
"Södra Stationsvägen 9, Hällberga, Eskilstuna",59.319332,16.595104,200.0,3711.0,False,0,0,6.0,1912,54 424,4 400 000
"Almliden 49, Örkelljunga, Örkelljunga",56.2886427181,13.2686984188,114.0,577.0,False,1,0,4.0,1981,None,860 000
"Forellgatan 28, Djupviken, Piteå",65.3365232079,21.4797549656,115.0,487.0,10.0,0,0,3.0,1980,34 267,1 500 000
"Lantmätarvägen 86, Södra Sunderbyn, Luleå",65.654736331,21.9599907334,124.0,660.0,56.0,1,0,5.0,1984,37 344,3 400 000
"Rosendal Smens 120, Glommen, Falkenbergs",56.9588945158,12.370648606,115.0,66612.0,False,1,0,6.0,1909,32 700,4 550 000
"Broby 18, Ekskogen, Vallentuna",59.6447269721,18.2411841676,115.0,1190.0,False,0,0,4.0,1915,26 200,4 150 000
"Söderängsvägen 19A, Töjnan, Sollentuna",59.42207,17.9271679,103.0,1074.0,52.0,0,0,3.0,1930,26 727,6 500 000
"Fäbodvägen 1, Skokloster - Slottsskogen, Håbo",59.6914451033,17.6156727878,138.0,1242.0,False,1,0,5.0,1973,50 053,2 500 000
"Plöjarevägen 16, Djurängen, Kalmar",56.6897163,16.328825,117.0,233.0,None,0,0,5.0,1968,35 500,2 950 000
"Parkgatan 18, None, Kramfors",62.9296043678,17.7679579923,132.0,1741.0,108.0,1,0,5.0,1950,43 620,1 200 000
"Hällebovägen 42, Hjulsbro, Linköpings",58.3845152913,15.6881160511,134.0,601.0,14.0,1,0,6.0,1973,29 000,6 600 000
"Gaddesanna 157, Gardesanna, Vänersborgs",58.3862142541,12.5115488773,122.0,4280.0,False,1,0,5.0,2005,37 114,3 300 000
"Gullvivevägen 19, Ludvigsborg Och Röinge, Hörby",55.9104323593,13.5866656528,61.0,1129.0,False,1,0,2.0,1970,26 246,1 100 000
"Granbodavägen 4, Bro Rättarboda, Upplands-Bro",59.5023422,17.6100941,136.0,1339.0,None,0,0,4.0,2012,37 602,5 650 000
"Bergsvägen 8, Svanesund, Orust",58.1413422,11.8130331,296.0,13006.0,39.0,0,0,8.0,1970,54 964,5 900 000
"Kvistagran 14, Östhammar, Östhammars",60.271550838,18.3664579789,194.0,539.0,False,0,0,7.0,2016,34 013,3 400 000
"Björkvägen 3, Sandared, Borås",57.7124701957,12.7888869485,207.0,1225.0,144.0,0,0,9.0,1962,71 421,3 500 000
"Krokvägen 5, None, Finspångs",58.728636077,15.5567419323,77.0,1325.0,55.0,1,0,4.0,1945,29 498,1 320 000
"Månsagårdsvägen 14, Onsala, Kungsbacka",57.3948665296,12.0024454594,131.0,803.0,140.0,0,0,None,1971,31 250,5 350 000
"Barrvägen 5, Prästbordet, Sollefteå",63.1533858317,17.2857678078,237.0,804.0,21.0,0,0,7.0,1991,40 353,2 010 000
"Sommarbo 220, Jordbro, Haninge",59.14467466652932,18.14455480341808,144.0,236.0,20.0,1,1,4.0,1978,50 592,3 400 000
"Bullerforsvägen 10, Forssa, Borlänge",60.50751624690522,15.43295909635281,104.0,1143.0,63.0,0,0,3.0,1946,24 532,1 425 000
"Näset 316, Örebro, Örebro",59.17397943030491,15.15960727005595,83.0,2122.0,10.0,0,0,4.0,1921,None,1 500 000
"Norråsvägen 35, Värnamo, Värnamo",57.19497578207157,14.03152881655096,112.0,758.0,108.0,0,0,5.0,1974,36 400,3 200 000
"None, None, None",N,o,None,None,None,0,0,None,None,None,
"Botavägen 9, Kungsäter, Varbergs",57.3115212251026,12.566826937188782,91.0,2333.0,89.0,0,1,4.0,1966,31 563,1 150 000
"Mjöträsk 1, Råneå älvdal, Luleå",66.02712152540602,22.098915025008097,45.0,7309.0,None,1,0,1.0,1959,20 147,260 000
"Funbo-Hovgården 41, Uppsala, Uppsala",59.8401651408859,17.897169531099532,155.0,9080.0,20.0,0,0,6.0,1988,15 792,8 888 888
"Bremnäs 155, Lycke Bremnäs, Kungälvs",57.8707218,11.724757,137.0,1298.0,53.0,0,0,6.0,1978,32 800,4 125 000
"Tellanders väg 1, Solås/Aspenäs, Lerums",57.7771583228,12.2485437821,115.0,801.0,20.0,0,0,5.0,1962,35 312,4 700 000
"Ulfsvägen 4, Gillstad, Lidköpings",58.44063978552087,12.959334266126778,108.0,1020.0,None,0,0,4.0,1974,35 983,1 650 000
"Saritslöv 276, SKURUP, Skurups",55.472983218650135,13.47296620802093,110.0,877.0,None,0,0,4.0,1909,None,1 400 000
"Hasselgatan 5, Tibro, Tibro",58.42904000338907,14.158372497736798,94.0,893.0,86.0,0,0,4.0,1956,28 824,1 600 000
"Biodlarvägen 27, Hemlingby, Gävle",60.64999139710574,17.157405691041774,150.0,912.0,25.0,1,0,5.0,1990,13 900,4 250 000
"Boregatan 4, Vättersnäs, Jönköpings",57.7890302258,14.244812863,115.0,706.0,115.0,1,0,5.0,1956,33 964,3 700 000
"Åkdonsvägen 3, Gråbo, Lerums",57.836214062920696,12.310783974318639,130.0,1131.0,None,0,0,5.0,1965,38 824,4 000 000
"Norra Yttervik 157, Skellefteå, Skellefteå",64.66441549618844,21.133503659964823,222.0,4410.0,None,1,1,6.0,1898,68 254,4 400 000
"Ollonborrevägen 7, Assarhusa, Lunds",55.707180903224334,13.326551841120608,165.0,667.0,None,0,0,6.0,1980,42 600,5 125 000
"Ringvägen 7, Lekeryd, Jönköpings",57.77424245402371,14.4208605996053,126.0,1536.0,None,0,0,5.0,1930,37 615,2 120 000
"Håkansgårdsgatan 65, Kungsbacka, Kungsbacka",57.5036290935,12.0620515032,155.0,428.0,20.0,1,0,7.0,1978,31 000,4 600 000
"Vistinge Ysundaviken 107, Vistinge Ysundaviken, Finspångs",58.692022180462,15.9191995214249,64.0,2195.0,43.0,0,0,3.0,1958,33 000,2 050 000
"Lidhemsgatan 1, Väster, Växjö",56.8777771,14.7893639,258.0,1035.0,100.0,0,0,9.0,1936,37 240,5 300 000
"Fogdevägen 6, Njurunda, Sundsvalls",62.27555011155211,17.36131220265834,134.0,464.0,None,0,0,6.0,1974,63 900,1 760 000
"Angleterre 2, Kumla, Vallentuna",59.602562,18.3068161,322.0,1753.0,150.0,0,0,9.0,1936,33 519,4 400 000
"Björkgränd 1, Burseryd, Gislaveds",57.200015502901,13.2911489183104,121.0,1024.0,None,0,0,5.0,1972,39 480,550 000
"Smedtofta Östergården 3, Stora Levene, Vara",58.338096494776,12.9575310912168,106.0,2827.0,51.0,0,0,5.0,None,5 741,415 000
"Vikingavägen 7, Räng Sand, Vellinge",55.40741,13.00425,168.0,933.0,10.0,0,0,6.0,2011,54 336,8 100 000
"Rosendalsvägen 19B, Fullersta, Huddinge",59.2491455,17.9778442,155.0,888.0,117.0,0,0,7.0,1974,39 047,8 200 000
"Sandnäsvägen 9B, Sandnäset-Dvärsätt, Krokoms",63.2867865386288,14.5010909854239,120.0,474.0,11.0,0,0,5.0,2020,32 948,3 650 000
"Stormvägen 111, Björkskatan, Luleå",65.61901,22.1713161,115.0,165.0,None,0,0,5.0,1977,36 750,2 600 000
"Kardvägen 5, Frennarp, Halmstads",56.6914090216006,12.87570049974,169.0,810.0,70.0,0,0,7.0,1979,37 833,4 100 000
"Östra Tvärgatan 3A, Hästveda, Hässleholms",56.2832756,13.9401159,104.0,750.0,50.0,0,0,5.0,1930,25 250,640 000
"Fiddekulla 126, None, Emmaboda",56.5339622,15.6267471,114.0,1568.0,None,0,0,6.0,1850,38 800,725 000
"Styrljusvägen 7B, Torslanda - Hjuvik, Göteborgs",57.7040825,11.7195654,170.0,1113.2,None,0,0,7.0,1986,47 266,7 500 000
"Otterdalsvägen 14, None, Laholms",56.51977,13.3133459,78.0,838.0,51.0,0,0,4.0,1930,32 440,540 000
"Björkeberg Årestadlund 1, Vikingstad, Linköpings",58.4473988960254,15.3886829721918,107.0,2664.0,None,0,0,7.0,1909,40 000,1 500 000
"Vårgränd 2, Högsby, Högsby",57.16363,16.0358086,103.0,1047.0,96.0,0,0,6.0,1978,32 459,1 220 000
"Frössvivägen 75, Näs, Hallstahammars",59.5982857,16.2149639,125.0,939.0,41.0,0,0,4.0,1977,41 676,2 100 000
"Vattentornsvägen 22, Söderby, Salems",59.2009163,17.791317,140.0,364.0,None,0,0,5.0,2012,37 012,5 000 000
"Lektorpsvägen 39, Adolfsberg, Örebro",59.2397881,15.1553259,210.0,701.0,37.0,0,0,6.0,1994,52 000,7 150 000
"Slottsvägen 25, Laröd, Helsingborgs",56.0869942,12.6589584,185.0,512.0,21.0,0,0,5.0,1979,42 820,5 600 000
"Soldalsringen 90, Repisvaara, Gällivare",67.11901,20.668396,107.0,765.0,56.0,0,0,4.0,2018,12 800,3 200 000
"Forellvägen 14, Njurunda - Mjösund, Sundsvalls",62.2743759,17.3979263,126.0,1080.0,40.0,0,0,5.0,1966,28 578,2 100 000
"Stora Vännerstorp Ekbacken 1, Söderköping, Söderköpings",58.499297138932,16.3254941015831,200.0,2291.0,38.0,0,0,7.0,1981,55 992,4 350 000
"Nygatan 56, Centralt, Hörby",55.8482723416,13.6586530241,83.0,720.0,19.0,0,0,3.0,1915,62 178,850 000
"Krokforsvägen 3, Trångfors, Bodens",65.8210042496,21.6112191507,74.0,1012.0,74.0,1,0,4.0,1959,39 906,1 050 000
"Svänggatan 8, Ursviken, Skellefteå",64.711492611,21.1763909921,204.0,836.0,80.0,1,1,6.0,1972,29 382,3 300 000
"Klövervallsvägen 4, Hällaryd, Karlshamns",56.204322789,14.9430161094,106.0,868.0,106.0,1,0,4.0,1966,50 466,730 000
"Hökvägen 7, Segeltorp, Huddinge",59.2726321528,17.9471169051,120.0,1503.0,13.0,0,0,6.0,1973,68 008,6 200 000
"Torpvägen 4, Berghem, Marks",57.4708762835,12.5907206055,138.0,2226.0,None,1,0,5.0,1928,47 257,2 200 000
"Åsvallsvägen 10, Möklinta, Sala",60.0899392007,16.5422947093,109.0,984.0,52.0,0,0,5.0,1970,21 527,1 250 000
"Anders Olsvägen 14C, Höllviken, Vellinge",55.4126434,12.9497814,113.0,1193.0,61.0,0,0,3.0,1940,42 594,8 400 000
"Slobyn Lövsta 1, Mangskog, Arvika",59.7768890348,12.7832792328,85.0,3815.0,85.0,0,0,4.0,1958,33 623,985 000
"Sälgringen 11, Öraberget, Ludvika",60.0732590634,15.0128168405,120.0,857.0,120.0,0,0,4.0,1964,36 752,717 000
"Egnahemsgatan 8, Åstorp, Åstorps",56.1290473607,12.9412492903,92.0,736.0,100.0,0,0,5.0,1942,37 968,1 500 000
"Slättegårdsvägen 2, Töreboda - Slätte, Töreboda",58.7606730577,14.2008363244,153.0,1483.0,9.0,0,0,6.0,1939,35 818,590 000
"Bergmans gata 17, Hörnebo, Tibro",58.4064756982,14.1468305303,185.0,850.0,62.0,0,0,7.0,1977,37 440,2 185 000
"Bågvägen 1, Hammarsjorden, Hjo",58.3121560655,14.2742388929,133.0,409.0,False,0,0,6.0,1976,31 715,2 195 000
"Posta-Johans väg 94, Kungsbacka, Kungsbacka",57.5070247515,12.1937738248,175.0,4745.0,52.0,1,1,7.0,1992,39 863,5 100 000
"Bomsund 429, Stugun, Ragunda",63.1519051,15.7795391,187.0,38579.0,68.0,0,0,7.0,1894,30 675,2 750 000
"Monekilsvägen 4, Hamburgsund, Tanums",58.5581767784,11.2701887314,106.0,579.0,106.0,1,0,6.0,1974,40 688,2 750 000
"Relsbo 293A, Nödinge, Ale",57.86764409999999,12.1134899,173.0,1170.0,False,0,0,6.0,2017,49 299,6 750 000
"Björkvägen 6, Alfta, Ovanåkers",61.3443608429,16.0430124761,117.0,910.0,112.0,0,0,5.0,1974,41 826,950 000
"Gäddsjövägen 24, Hällefors, Hällefors",59.7919241159,14.5240725188,122.0,4870.0,False,1,1,6.0,1924,56 768,725 000
"Sihedsgatan 17, Prästgärdan, Älvsbyns",65.6684893759,20.9974926561,76.0,1045.0,76.0,0,0,3.0,1958,49 027,850 000
"Bruksvägen 12, Åminne, Värnamo",57.1219362198,14.0064313728,100.0,1461.0,53.0,1,0,4.0,1938,47 167,1 095 000
"Casa Blanca, Lyngbyvägen 126-22, None, Kristianstads",55.90951242185995,14.111997212999729,245.0,10000.0,None,0,0,None,1937,None,3 610 000
"Gamla vägen 18, Långedrag - Hinsholmen, Göteborgs",57.66785738779693,11.858697405604277,155.0,1298.4,70.0,1,1,7.0,1977,56 574,11 528 000
"Svenstorpsgatan 13, Centrala Trelleborg, Trelleborgs",55.37581816696078,13.145651416104798,160.0,380.0,130.0,0,0,7.0,1947,91 335,3 700 000
"Krokavägen 8, Forsvik, Karlsborgs",58.5723077633,14.4351864482,75.0,843.0,75.0,0,0,5.0,1954,27 852,1 500 000
"Lassbyn 230, Tandsbyn, Östersunds",63.020004672306264,14.755046643905509,85.0,5049.0,None,0,0,4.0,None,19 800,1 950 000
"Sundsmarken Sundsbo 1, None, Mariestads",58.78474463421852,13.875393706165758,77.0,2383.0,50.0,0,0,4.0,1951,32 938,1 250 000
"Hyllan 14, Kungsbacka, Kungsbacka",57.47383381855585,12.09317989869496,157.0,959.0,32.0,0,0,6.0,2001,45 026,7 400 000
"Vickelbyvägen 70, Skärblacka, Norrköpings",58.57221795386511,15.937254378508186,138.0,555.0,None,1,0,6.0,1974,50 750,2 550 000
"Orås 1014, None, Hörby",55.749126975866304,13.651562551823059,120.0,851.0,76.0,0,0,4.0,1909,35 237,700 000
"Västra Alstads kyrkoväg 135-0, Trelleborg, Trelleborgs",55.447575948757994,13.204087763471946,152.0,482.0,None,0,0,7.0,1909,33 147,1 850 000
"Skolgatan 27, Brålanda, Vänersborgs",58.55987505435967,12.357263862248526,135.0,962.0,160.0,1,1,6.0,1972,32 935,1 550 000
"Vittene Gård 3, Östadkulle, Vårgårda",57.99695613911273,12.661417162663179,201.0,2031.0,None,0,0,7.0,2017,30 326,4 100 000
"Enebobacken 2, Alster, Karlstads",59.3993892562398,13.62394084238761,168.0,2071.0,None,0,0,7.0,2022,47 974,5 900 000
"Ekendals väg 17, Hagälven, Hagfors",60.0145058904,13.6753996518,82.0,1422.0,18.0,0,0,3.0,1935,38 730,800 000
"Höjentorpsvägen 8, Höjentorp, Uddevalla",58.3329307438,11.9207623414,178.0,903.0,50.0,0,0,10.0,1920,39 800,3 350 000
"Hanekullevägen 3, Trelleborg, Trelleborgs",55.4528209987253,13.210409072642397,94.0,675.0,None,0,0,3.0,2022,None,3 100 000
"Villavägen 11, Vadstena - Gamla Söder, Vadstena",58.4434982804,14.8973389721,165.0,773.0,84.0,0,0,6.0,1954,48 300,2 300 000
"Fingerboda 134, None, Nora",59.4911274331,15.1377699175,130.0,3375.0,23.0,0,0,6.0,1975,27 143,2 600 000
"Verkstadsgatan 16, Björneborg, Kristinehamns",59.2440922062,14.2570085762,161.0,993.0,7.0,1,1,6.0,1912,60 754,420 000
"Boråsvägen 31, Aplared, Borås",57.64791582373476,13.076482698266675,179.0,1690.0,None,1,0,6.0,1929,38 990,3 390 000
"Nygatan 16, Forsheda, Värnamo",57.16214071792319,13.820590042767714,126.0,1006.0,40.0,0,0,5.0,1970,44 350,1 700 000
"Viksjöforsvägen 202, Viksjöfors, Ovanåkers",61.335583359574564,15.976725009840221,70.0,1860.0,None,1,1,2.0,1929,33 190,710 000
"Staffansvägen 10H, Centralt, Knivsta",59.7274620491,17.7919562713,118.0,1130.0,156.0,1,0,6.0,1963,47 354,4 700 000
"Sotenäsvägen 8, Sävedalen, Partille",57.7305756,12.0657892,158.0,757.0,118.0,0,0,5.0,1935,39 785,5 630 000
"Skälby gårds väg 5B, Skälby, Järfälla",59.39738,17.8463173,172.0,1180.0,127.0,0,0,9.0,1958,34 050,7 020 000
"Hacksta gård, Hacksta, Vallentuna",59.5503578,18.2059765,367.0,951845.0,140.0,0,0,11.0,1909,None,41 000 000
"Tromsövägen 11B, Vega, Haninge",59.19142570533134,18.135756884335542,178.0,956.0,56.0,1,1,6.0,2022,23 100,8 400 000
"Kyrkogatan 9, Centralt, Svedala",55.507412,13.2355232,110.0,400.0,22.0,0,0,7.0,1909,33 650,3 700 000
"Övre Långvinkelsgatan 98, Slottshöjden, Helsingborgs",56.0509033,12.7010717,171.0,146.0,11.0,0,0,6.0,1978,35 226,5 800 000
"Ängsvägen 62, Snättringe, Huddinge",59.25751,17.97792,112.0,1186.0,111.0,0,0,5.0,1974,51 500,7 400 000
"Gålebergsvägen 13, Asperö, Göteborgs",57.6492653,11.794404,112.0,385.0,16.0,0,0,8.0,1909,22 207,5 800 000
"Silver-Anders väg 48, Norra Bro, Örebro",59.2236252,15.2503519,142.0,310.0,None,0,0,6.0,1978,None,2 920 000
"Skogsvägen 14, Edsviken, Sollentuna",59.42783,17.9581413,186.0,1756.0,150.0,0,0,10.0,1915,59 600,13 050 000
"Morkullegatan 19, Alsike, Knivsta",59.749382,17.785471,143.0,791.0,None,0,0,5.0,2008,56 700,5 800 000
"Hjortvägen 5, Berga, Kalmar",56.68758,16.347517,148.0,339.0,14.0,0,0,5.0,2016,34 889,5 190 000
"Bälinge-Nyby 22, Åkerlänna, Uppsala",60.0281525,17.3473873,168.0,8876.0,109.0,0,0,6.0,1974,27 906,2 510 000
"Tallbacksvägen 6, Bergby, Gävle",60.9303543673,17.0458787659,88.0,1040.0,73.0,1,0,4.0,1956,24 163,1 225 000
"Enbärsvägen 3, Hasslö, Karlskrona",56.1135020593,15.4756576833,117.0,876.0,False,1,0,5.0,1983,34 707,2 250 000
"Romelevägen 46, Djurgården, Kristinehamns",59.2952908105,14.095144881,119.0,594.0,71.0,0,0,5.0,1957,38 544,1 925 000
"Svanstigen 13, Sommarbyarna, Sjöbo",55.6308677094,13.6610452145,75.0,1408.0,25.0,1,0,2.0,1964,25 005,2 000 000
"Stora vägen 35, Kosta, Lessebo",56.840726569136926,15.398077534672732,119.0,1137.0,35.0,1,1,5.0,1921,32 500,600 000
"Mellqvistsvägen 24, Götetorp , Hammarö",59.3323636285,13.4928497073,102.0,974.0,None,0,0,4.0,1972,None,1 775 000
"Backgatan 5, Ljungarum, Jönköpings",57.75805830945719,14.170745606113927,130.0,961.0,52.0,0,0,7.0,1966,36 339,3 020 000
"Rockesholm 38, None, Hällefors",59.5304536656,14.6512851324,46.0,2956.0,None,0,0,1.0,None,16 300,695 000
"Ekdalsvägen 25, Vendelsö, Haninge",59.1906205779,18.2213541307,172.0,1419.0,25.0,1,1,7.0,2016,59 776,7 740 000
"Dalsjövägen 1, Dalsjöfors, Borås",57.72020629999999,13.0970485,85.0,728.0,85.0,0,0,6.0,1958,46 378,2 300 000
"Åtvidabergsvägen 14, None, Valdemarsviks",58.3311730742,16.4411133637,111.0,975.0,53.0,1,0,4.0,1935,43 529,1 850 000
"Utby 200, Älvängen, Ale",57.937005416455506,12.125337168618405,105.0,4916.0,None,0,0,6.0,1924,None,3 700 000
"Gingri 2, Gingri, Borås",57.815109731815674,13.028290671477235,190.0,4809.0,None,1,0,6.0,2018,32 181,4 200 000
"Trevlingevägen 50, Rasbo - Gåvsta, Uppsala",59.9416656,17.8808956,132.0,610.0,None,0,0,5.0,2009,53 189,4 600 000
"Krusagårdsvägen 15, Fritsla, Marks",57.5523639915324,12.7883650967033,120.0,1699.0,70.0,0,0,5.0,1936,47 730,1 375 000
"Vallgatan 4, Billesholm, Bjuvs",56.0518468768735,12.9749474410424,135.0,1443.0,50.0,1,0,7.0,1948,45 379,2 050 000
"Sundomsvägen 824, Sundom, Luleå",65.78251,22.3155766,115.0,4431.0,None,0,0,4.0,1975,42 102,2 200 000
"Censorsvägen 6, Löddesnäs, Lomma",55.7267723,13.0210323,125.0,560.0,125.0,0,0,6.0,1969,34 754,4 800 000
"Bergsgatan 3, Centrum, Ånge",62.5270538,15.6666441,148.0,1560.0,60.0,0,0,7.0,1935,44 241,2 325 000
"Hundberget 246, Torpshammar, Ånge",62.489515370038085,16.36794116008599,69.0,1495.0,64.0,1,1,3.0,1950,28 000,350 000
"Konsumstigen 3, Svalöv, Svalövs",55.9162,13.1077127,116.0,502.0,None,0,0,5.0,1914,32 429,2 210 000
"Södra Sandåsgatan 59, Färjestaden, Mörbylånga",56.6372147,16.4792137,159.0,1740.0,None,0,0,5.0,1934,22 700,3 750 000
"Ask 733, Ask, Svalövs",55.9635,13.2439175,60.0,600.0,25.0,0,0,3.0,1909,None,500 000
"Korpralsgränd 5, Norr, Eksjö",57.6765230069,14.9626601014,130.0,1096.0,None,1,0,4.0,1911,32 285,2 600 000
"Sjöviksvägen 28A, Rönninge, Salems",59.1974612818,17.7371475806,155.0,1394.0,7.0,0,0,5.0,1987,39 200,8 000 000
"Floragatan 15, Sanden, Bodens",65.8161099345,21.6976483467,95.0,914.0,45.0,0,0,5.0,1959,37 730,1 670 000
"Nedre skogsbacken 10, Alafors, Ale",57.9264789149,12.0915948443,112.0,1087.0,144.0,1,0,7.0,1977,41 243,4 200 000
"Backsippestigen 8, Östra Brudbadet, Eksjö",57.6521424792,14.9726851319,145.0,668.0,41.0,1,1,5.0,1968,31 394,2 800 000
"Frövägen 3, Öster, Växjö",56.8726145491,14.832926987,127.0,728.0,20.0,1,0,4.0,1968,34 375,4 100 000
"Kvarngatan 13, Skivsta, Forshaga",59.52614,13.4750051,83.0,1310.0,60.0,0,0,5.0,1936,53 862,1 545 000
"Torgelsholmen 13, Resö, Tanums",58.81731176776758,11.193714788833159,56.0,876.0,44.0,1,0,4.0,1877,21 157,5 550 000
"Segerstavägen 12, Centralt, Knivsta",59.7207376813,17.7961385768,161.0,497.0,False,0,0,7.0,1973,51 365,4 000 000
"Klingagatan 33, Skarphagen, Norrköpings",58.57357866730784,16.15887697415891,137.0,776.0,None,1,1,4.0,1979,50 960,4 800 000
"Truedstorp norra 36, None, Bjuvs",55.9906592591577,12.998472634189456,96.0,584.0,72.0,1,0,4.0,1936,32 000,1 000 000
"Vikstaby 13, Viksta, Uppsala",60.07561217573086,17.635524555883887,168.0,5335.0,16.0,1,1,5.0,1909,40 995,4 295 000
"Tygelvägen 10, Häsängen, Karlskoga",59.32051767499591,14.486432046250027,124.0,935.0,95.0,0,0,5.0,1957,27 583,1 295 000
"Hertig Karls väg 4, Centralt, Trosa",58.897900723742374,17.55231350710571,109.0,774.0,100.0,0,0,7.0,1956,56 158,6 750 000
"Haråsvägen 13, Hindås, Härryda",57.70357847011228,12.460449669438818,98.0,1270.0,50.0,1,1,5.0,1939,32 000,3 100 000
"Kyrkbacken 72, Svärtinge, Norrköpings",58.6492538,16.0236454,125.0,1144.0,40.0,0,0,4.0,2006,53 250,5 100 000
"Segmentvägen 6, Staffanstorp, Staffanstorps",55.6498566,13.1999769,150.0,260.0,None,0,0,None,1973,35 466,4 200 000
"Sjökortsvägen 9, Torslanda - Andalen, Göteborgs",57.7050476,11.7601328,70.0,1150.0,30.0,0,0,2.0,1965,22 504,3 950 000
"Ängomsvägen 31, Matfors, Sundsvalls",62.3526840629875,17.044562641515,166.0,1397.0,30.0,0,0,6.0,1973,44 922,2 500 000
"Kråkövägen 20, None, Hudiksvalls",61.728910057054904,17.139402627822598,112.0,856.0,95.0,0,0,7.0,1971,31 400,2 850 000
"Rönnvägen 7, Bohus, Ale",57.8465424,12.018178,109.0,735.0,71.0,0,0,5.0,1966,28 700,4 895 000
"Vårbroddsvägen 1, Beddingestrand, Trelleborgs",55.3614922,13.431,176.0,811.0,40.0,0,0,5.0,1960,73 745,8 600 000
"Möllstorpsgatan 30, Färjestaden, Mörbylånga",56.6567345,16.48892,140.0,1190.0,None,0,0,7.0,1930,30 605,4 300 000
"Källeryd Marieberg 1, Källeryd, Herrljunga",58.1154633,13.1930885,105.0,1290.0,None,0,0,3.0,1925,33 606,1 500 000
"Bergaliden 24, Tulemarken, Sundbybergs",59.36933,17.9701042,137.0,708.0,40.0,0,0,6.0,1938,None,12 100 000
"Hoby mosse 323, Hoby, Lunds",55.7714462,13.1473923,259.0,4856.0,None,0,0,8.0,2022,29 300,8 050 000
"Norlindsvägen 6, Bromma Kyrka, Stockholms",59.3567361413,17.91794878,154.0,637.0,16.0,0,0,6.0,1909,48 135,10 900 000
"Dalvägen 5, Osby, Osby",56.3832720261,14.0291837736,140.0,1258.0,False,1,0,5.0,1974,47 430,1 875 000
"Nöttövägen 74, Karlholm, Tierps",60.5258114513,17.6010682174,86.0,1310.0,113.0,0,1,5.0,1959,41 288,1 650 000
"Hyltaskogsvägen 10, Skurup, Skurups",55.488846,13.504452,157.0,626.0,False,1,0,6.0,1982,56 094,2 100 000
"Violvägen 4, Ren, Bollnäs",61.3637129003,16.4254136841,112.0,1125.0,False,1,0,4.0,1986,25 008,1 620 000
"Sävstaholmsvägen 20, Göingegården, Varbergs",57.129621276,12.2705223569,116.0,653.0,9.0,1,0,4.0,2012,49 790,5 500 000
"Norra Kverrestad 809, Kverrestad, Tomelilla",55.5329914381,14.0193543994,290.0,1226.0,105.0,1,1,8.0,1934,69 609,3 050 000
"Förgyllargatan 5, Lagerlunda, Norrköpings",58.60668,16.167713,88.0,615.0,88.0,0,0,4.0,1963,35 968,3 750 000
"Skalleråsvägen 2, Ransta, Sala",59.8114103482,16.6245958609,155.0,1245.0,False,0,0,6.0,1974,35 918,1 730 000
"Strandskogen 100, Saxnäs / Öland, Mörbylånga",56.7006690596,16.4973248269,190.0,964.0,False,1,1,6.0,2019,21 400,5 200 000
"Kornbackegatan 16, Riseberga, Malmö",55.5970505734,13.0746326223,146.0,500.0,138.0,1,0,5.0,1976,47 700,4 350 000
"Domherrevägen 4, Lyckorna/löddeköpinge, Kävlinge",55.750514007,12.9894374397,177.0,1005.0,37.0,0,0,7.0,1990,43 657,6 500 000
"Sommarbo 226, Jordbro, Haninge",59.14533,18.1449928,144.0,220.0,20.0,0,0,5.0,1978,None,3 100 000
"Bergtorpstigen 67, Älvsjö/Långsjö, Stockholms",59.270502178,17.987904543,125.0,387.0,70.0,1,0,6.0,1966,47 402,7 250 000
"Yggenäs Nybo , None, Hagfors",60.1564204904,13.5374192783,72.0,19884.0,False,0,0,3.0,1930,17 760,730 000
"Hemsjövägen 80, Hemsjö, Alingsås",57.8623027289,12.4903296588,125.0,2406.0,False,1,0,6.0,1956,10 059,3 800 000
"Vallmovägen 9, Tollarp, Kristianstads",55.93746,13.9839687,139.0,908.0,17.0,0,0,6.0,1973,8 800,1 695 000
"Tallstigen 5, Knislinge, Östra Göinge",56.1894470099,14.0712753356,158.0,1076.0,95.0,0,0,5.0,1973,52 453,1 900 000
"Skånings-Åsaka Nyåker 1, Skara Nord - Landsbygd, Skara",58.436165,13.453708,186.0,2364.0,False,0,0,7.0,1978,36 500,1 200 000
"Tjädervägen 22, Ed, Dals-Eds",58.922592,11.910551,110.0,None,40.0,1,0,4.0,1990,25 865,500 000
"Tackjärnsgatan 44, Bäckby, Västerås",59.5947673488,16.4859119093,124.0,988.0,False,0,0,6.0,1971,33 200,3 030 000
"Arrebo Karlstorp 1, None, Boxholms",58.1275145307,15.1027724704,120.0,4594.0,False,0,0,3.0,1929,28 350,825 000
"Grimstahamnsvägen 5, Bromma Nockebyhov, Stockholms",59.3342972,17.925684,99.0,513.0,50.0,0,0,5.0,1929,None,9 350 000
"Åsastigen 23, Lännersta, Nacka",59.3222466,18.2624321,210.0,1004.0,None,0,0,6.0,2007,67 410,11 000 000
"Vällsjövägen 9, Pixbo, Härryda",57.650099592553694,12.09143194375374,142.0,1500.0,70.0,0,0,5.0,1939,None,7 100 000
"Dammsjöåsvägen 11, Alingsås Lantligt, Alingsås",57.905276135296454,12.59706002836729,166.0,1859.0,None,1,0,5.0,1980,35 743,3 675 000
"Tallvägen 12, Grönalid, Vansbro",60.502958025001824,14.23513556168753,101.0,1248.0,101.0,0,0,4.0,1974,40 775,850 000
"Hindriks väg 11, Danholn, Falu",60.619547261991755,15.79083366486216,97.0,980.0,52.0,1,0,4.0,1957,32 610,2 395 000
"Tranbärsstigen 10, Svartudden, Piteå",65.31688110021675,21.517821056315928,111.0,892.0,69.0,0,0,4.0,1980,42 800,1 443 500
"Strand 215, Vika Strand, Falu",60.481643535444256,15.752891169146453,112.0,2860.0,None,0,0,5.0,1984,34 612,1 800 000
"Varby Udde 1, None, Söderköpings",58.4955942117,16.2513562884,169.0,1672.0,10.0,0,0,5.0,1991,49 550,4 100 000
"Pryssgårdsvägen 44, None, Norrköpings",58.6039548083,16.1343297231,99.0,1148.0,58.0,0,0,5.0,1932,50 730,3 600 000
"Korvettvägen 7, Enköping, Enköpings",59.594394590382464,17.077574495038796,90.0,629.0,40.0,0,0,3.0,2014,None,3 900 000
"Väpnarstigen 21, Brevik, Tyresö",59.21443342720438,18.36039597215574,90.0,2853.0,45.0,1,0,6.0,2009,36 300,6 700 000
"Stenlundavägen 15A, Örebro, Örebro",59.34479048938186,15.229241025322029,166.0,664.0,None,0,0,8.0,1991,38 400,4 600 000
"Herrkil 32, SKÄRGÅRDEN, Söderhamns",61.3214632777,17.1092923469,83.0,2573.0,64.0,0,0,4.0,None,16 087,320 000
"Ivarsbjörke 243, Sunne, Sunne",59.94293226253079,13.205684784306369,155.0,8800.0,10.0,0,0,4.0,1824,53 600,2 000 000
"Kvinnebyvägen 92, Linköping, Linköpings",58.37935608816095,15.689962811753647,147.0,512.0,98.0,0,0,6.0,1973,35 032,4 500 000
"Hult Ärrhult 1, Anneberg, Nässjö",57.7175068128,14.8097956181,69.0,150878.0,False,1,1,4.0,1909,26 930,3 700 000
"Gamla vägen 5, Årjäng, Årjängs",59.39166752107359,12.138016822210556,125.0,934.0,60.0,0,0,5.0,1920,39 953,1 250 000
"Rödbergshallsvägen 11, Lanesund, Uddevalla",58.346447315240724,11.698585374676314,143.0,1697.0,30.0,1,0,None,1978,53 215,3 300 000
"Snövits väg 13B, Trollbäcken, Tyresö",59.226525703398856,18.206607500326196,39.0,977.0,None,0,0,2.0,None,None,3 000 000
"Västerlångvägen 20, Råneå, Luleå",65.86052947487954,22.280736854391744,48.0,970.0,None,0,0,None,1909,None,400 000
"Järnstad Lunden 1, None, Ödeshögs",58.2526668913,14.7623842786,75.0,4868.0,25.0,0,0,4.0,1909,None,460 000
"Böle 11, Svärdsjö, Falu",60.7750183038,15.9262741558,110.0,4274.0,21.0,1,0,4.0,1909,19 812,1 550 000
"Klövervägen 7, Centralt Sollefteå, Sollefteå",63.163429993,17.2663959866,98.0,1036.0,98.0,0,0,5.0,1966,36 599,775 000
"Höststigen 3, Södertälje, Södertälje",59.16271398135712,17.58344975868006,90.0,1704.0,None,1,0,3.0,1940,22 606,1 700 000
"Amshyttan Rågsveden 102, Dala-Husby, Hedemora",60.43525491768094,15.943915545253413,150.0,3208.0,24.0,0,0,6.0,1850,33 194,1 200 000
"Gullgruva 730, Ljusne, Söderhamns",61.18855216160796,16.947419225697768,85.0,3172.0,25.0,0,0,4.0,1909,None,800 000
"Högboda Nedre korsmossen 1, Högboda, Kils",59.57793907612847,12.99830602729054,104.0,9138.0,None,0,0,5.0,1909,36 425,2 350 000
"Nissanvägen 14, Taberg, Jönköpings",57.68316,14.0896893,119.0,842.0,54.0,0,0,5.0,1946,44 369,3 820 000
"Solkurvan 15, Varamon, Motala",58.5577049,15.0094032,140.0,723.0,32.0,0,0,6.0,1991,36 111,3 835 000
"Vängevägen 31, Skälby, Upplands Väsby",59.5283546,17.9320145,107.0,343.0,23.0,0,0,5.0,1967,58 354,3 850 000
"Bruksallén 8, Näsviken, Hudiksvalls",61.75839457230732,16.875389071424703,561.0,34331.0,491.0,0,0,None,1929,104 100,10 500 000
"Gaterseredsvägen 45, Billdal, Göteborgs",57.5657654,11.9686308,178.0,1748.0,None,0,0,6.0,1941,44 490,6 600 000
"Björksta by Sofielund 1, None, Gnesta",59.1006279,17.1988487,37.0,2336.0,21.0,0,0,3.0,1909,29 500,1 940 000
"Germunds väg 28, Sigtuna - Til, Sigtuna",59.619314479724,17.7519750053369,158.0,1085.0,5.0,0,0,5.0,1970,32 063,5 900 000
"Fästanvägen 16, Kivik, Simrishamns",55.6812381863438,14.211866529413,93.0,3209.0,11.0,0,0,3.0,1929,79 596,3 900 000
"Sångargatan 4, Kristiansborg, Västerås",59.62243,16.5396461,205.0,789.0,140.0,0,0,7.0,1937,54 830,6 625 000
"Linderödsvägen 128-8, Tollarp, Kristianstads",55.93019,13.9491348,86.0,3410.0,None,0,0,5.0,1909,41 533,1 850 000
"Nybyvägen 35, None, Vännäs",63.8994093703251,19.7283657906496,126.0,1000.0,120.0,0,0,5.0,1960,36 142,2 150 000
"Sandhagsvägen 10, Igelfors, Finspångs",58.84938099963996,15.693559130251037,85.0,1757.0,85.0,1,0,4.0,1963,37 300,940 000
"Ekerödsvägen 243, None, Ängelholms",56.2862549,13.160037,96.0,6563.0,None,0,0,4.0,1914,32 745,1 350 000
"Smedvägen 8, Landvetter, Härryda",57.686554,12.2255583,122.0,1192.0,None,0,0,5.0,1914,44 879,3 700 000
"Hallonstigen 13, Svärtinge, Norrköpings",58.6540337,16.03507,129.0,3523.0,21.0,0,0,5.0,1991,28 564,4 200 000
"Malusgatan 1, Husie, Malmö",55.590992,13.0798159,175.0,626.0,110.0,0,0,7.0,1971,8 369,5 200 000
"Tulpangatan 33, Norra Gryta, Västerås",59.6496645273654,16.5478630721292,104.0,297.0,None,0,0,4.0,1991,45 353,2 875 000
"By Västsvedjan 238, Alby
Ånge, Ånge",62.5112152,15.2645941,None,36300.0,None,0,0,4.0,2019,None,1 200 000
"Trulsibrunnvägen 3, Höllviken, Vellinge",55.4136238,12.945632,213.0,1231.0,57.0,0,0,8.0,1968,59 700,10 350 000
"Jonas Jonssons väg 32, Hagälven, Hagfors",60.0156336638539,13.6768165752897,90.0,1252.0,90.0,0,0,3.0,1962,31 360,575 000
"Bokvägen 3, Hanaskog, Östra Göinge",56.1604958,14.0990925,130.0,759.0,180.0,0,0,None,1964,10 300,1 300 000
"Lundby Tallbacken 1, None, Gnesta",59.0242233,17.2073326,153.0,1667.0,None,0,0,6.0,1984,31 483,2 500 000
"Ramsjö skogsväg 21, Järlåsa, Uppsala",59.8412361,17.2119045,96.0,992.0,None,0,0,4.0,1986,31 904,1 650 000
"Stenliden 12, Mölndal - Toltorpsdalen, Mölndals",57.6723671,11.9754887,181.0,1336.0,35.0,0,0,9.0,1921,67 645,8 000 000
"Noravägen 227, Bråten, Karlskoga",59.3664627,14.5727243,72.0,1244.0,57.0,0,0,3.0,1936,29 890,875 000
"Skolgatan 50, Knislinge, Östra Göinge",56.1967773,14.080965,213.0,1152.0,21.0,0,0,7.0,1909,9 800,1 650 000
"Svärmarevägen 77, Fresta, Upplands Väsby",59.5115776,17.9579544,95.0,670.0,66.0,0,0,5.0,1976,29 011,5 000 000
"Östra Odarslöv 451, Östra Odarslöv, Lunds",55.7430649,13.2753468,94.0,1705.0,7.0,0,0,3.0,1909,None,2 495 000
"Sagers väg 18, Sjöryd, Mullsjö",57.9127579,13.8679781,91.0,516.0,None,0,0,4.0,1972,32 235,1 350 000
"Lettströms väg 17B, Gillbo, Sollentuna",59.47934,17.9021473,163.0,824.0,8.0,0,0,7.0,1998,46 585,7 685 000
"Björkängsgatan 17, Kinnarp, Falköpings",58.073307,13.51481,159.0,937.0,44.0,0,0,6.0,1975,58 090,1 650 000
"Storsvedvägen 8, Lottefors, Bollnäs",61.41537,16.408123,148.0,5040.0,14.0,0,0,6.0,1910,34 450,950 000
"Jökelvägen 26, Vega, Haninge",59.18899,18.1338539,130.0,1233.0,68.0,0,0,4.0,1988,59 121,6 200 000
"Backsippevägen 7, Skogstorp, Falkenbergs",56.9075279,12.4409,124.0,876.0,40.0,0,0,5.0,1971,31 420,2 325 000
"Lars-Emils väg 56, Hällabrottet, Kumla",59.1175461,15.187377,119.0,606.0,35.0,0,0,5.0,1989,44 656,2 700 000
"Markvägen 17, Kåge, Skellefteå",64.8402252,20.9781723,109.0,1130.0,143.0,0,0,None,1975,26 221,3 000 000
"Hammarvägen 3C, Mosås, Örebro",59.19645,15.1482964,123.0,900.0,None,0,0,5.0,1989,49 600,3 300 000
"Byvägen 36, Nattavaara By, Gällivare",66.75995,21.0365925,None,2580.0,None,0,0,3.0,None,None,150 000
"Gisslarbo 60, Gisslarbo, Köpings",59.62829,15.8122349,268.0,4836.0,45.0,0,0,6.0,1929,40 300,3 100 000
"Havsuddsvägen 8, Svinninge, Österåkers",59.45005,18.2958031,234.0,3076.0,None,0,0,7.0,2016,42 200,11 825 000
"Malmavägen 4, Arentorp, Vara",58.2435498109051,12.8726168324893,115.0,625.0,None,0,0,4.0,1938,29 351,625 000
"Klockarevägen 6D, Södra Sandby, Lunds",55.72140131395904,13.336191097517395,111.0,655.0,32.0,1,0,4.0,1964,44 400,2 900 000
"Skogstorpsvägen 14, Hov, Växjö",56.9014359,14.8116617,108.0,823.0,105.0,0,0,4.0,1967,55 380,2 600 000
"Carl XI:s väg 11, Väster / Exercisfältet, Landskrona",55.8797369962561,12.8222104958775,179.0,702.0,84.0,0,0,7.0,1944,57 400,3 750 000
"Allégatan 18, Södra Sandby, Lunds",55.71812351695989,13.347681915894055,114.0,771.0,112.0,1,0,4.0,1967,44 500,4 100 000
"Alstervägen 44A, Alsterbro, Nybro",56.9446559478834,15.9134493192059,297.0,2170.0,83.0,0,0,8.0,1909,68 075,720 000
"Bollvägen 13, Gällstad, Ulricehamns",57.66697,13.42239,136.0,1374.0,91.0,0,0,6.0,1966,53 067,1 995 000
"Vegavägen 18A, Vega Söderhagen, Haninge",59.19297,18.1446056,208.0,855.0,30.0,0,0,8.0,1988,49 970,5 400 000
"Förläggarvägen 1, Tandsbyn, Östersunds",62.9997040345097,14.7452469205243,158.0,1402.0,None,0,0,5.0,1982,28 810,1 400 000
"Björklövsvägen 7, Älvängen, Ale",57.9611409233,12.1327280084,153.0,910.0,60.0,1,0,7.0,1976,29 666,3 755 000
"Vråkvägen 21, Centralt Sollefteå, Sollefteå",63.1515214079,17.2783045753,147.0,1016.0,42.0,0,0,6.0,1978,29 039,750 000
"Sjöutsikten 13, Ekerö Sandudden, Ekerö",59.2735635096,17.7785979396,114.0,432.0,17.0,0,0,5.0,2002,55 604,6 100 000
"Röddingsvägen 237, Jävre, Piteå",65.170969577,21.4592245406,92.0,2009.0,False,0,0,3.0,1931,32 065,960 000
"Ljunghedsvägen 11, Barnarp, Jönköpings",57.7052234933,14.1671206828,137.0,796.0,36.0,1,0,5.0,1987,17 486,3 700 000
"Bränntorpsvägen 29, Edsbro, Norrtälje",59.8570107264,18.4371260016,170.0,3797.0,130.0,1,0,5.0,1909,44 200,3 000 000
"Tornvägen 7, Vårsta, Botkyrka",59.1647560661,17.8000970413,85.0,1717.0,61.0,0,1,4.0,1947,40 894,4 100 000
"Hallstensgatan 13, Bratthammar, Göteborgs",57.6498844799,11.8861242424,129.0,1119.0,101.0,1,1,7.0,1976,43 462,6 650 000
"Venngarn 621, Sigtuna - Wenngarn, Sigtuna",59.647713978,17.7235309606,134.0,637.0,False,1,0,6.0,2015,47 466,6 225 000
"Lokegatan 6, Bromölla, Bromölla",56.0827375399,14.485318096,133.0,994.0,False,0,0,6.0,1976,62 578,2 375 000
"Månviolsgränd 1, Månbyn, Staffanstorps",55.6458155538,13.1967343619,155.0,483.0,6.0,1,0,5.0,1971,49 668,2 950 000
"Sofieberg 11, Bammarboda, Österåkers",59.511547,18.462496,122.0,2574.0,False,1,0,4.0,2000,42 500,8 600 000
